ROUTE_NAME,ROUTE,DAY,DIR,STOP,STOPNAME,DAY_ON,DAY_OFF,LAT,LONG
1,1,Weekday,Northbound,1,SAN LEANDRO BART,594.8314137,0.083333333,37.72165346,-122.1600537
1,1,Weekday,Northbound,2,DOWNTOWN SAN LEANDRO NB,523.381965,115.7992729,37.7254097,-122.1575992
1,1,Weekday,Northbound,3,SAN LEANDRO CIVIC CENTER NB,55.64628375,18.90268029,37.72813763,-122.1583611
1,1,Weekday,Northbound,4,GEORGIA WAY NB,49.68021024,29.19291576,37.73151881,-122.1608877
1,1,Weekday,Northbound,5,DURANT AVENUE,127.2376929,85.59670182,37.73574012,-122.1640646
1,1,Weekday,Northbound,6,103RD AVENUE,221.7512798,139.4876271,37.74077163,-122.1678015
1,1,Weekday,Northbound,7,98TH AVENUE,203.7595329,101.8034891,37.74348411,-122.1698487
1,1,Weekday,Northbound,8,95TH AVENUE,261.9652615,105.6993818,37.74610976,-122.1717786
1,1,Weekday,Northbound,9,90TH AVENUE,237.8857747,126.607014,37.7494361,-122.1742456
1,1,Weekday,Northbound,10,86TH AVENUE,188.1182443,120.4088427,37.75239399,-122.1764373
1,1,Weekday,Northbound,11,82ND AVENUE,272.058605,136.6657792,37.75579675,-122.179856
1,1,Weekday,Northbound,12,77TH AVENUE,207.6867504,122.5836266,37.75813703,-122.1847749
1,1,Weekday,Northbound,13,73RD AVENUE,304.8225831,177.4477623,37.75992811,-122.1885542
1,1,Weekday,Northbound,14,67TH AVENUE,191.3860262,103.4003201,37.76140315,-122.1916362
1,1,Weekday,Northbound,15,63RD AVENUE,204.607594,130.6272504,37.76350945,-122.1962253
1,1,Weekday,Northbound,16,SEMINARY,273.3087149,146.7972231,37.76557677,-122.2007254
1,1,Weekday,Northbound,17,54TH AVENUE,150.2742833,89.51016298,37.76811003,-122.2058653
1,1,Weekday,Northbound,18,48TH AVENUE,170.379982,110.9687216,37.76966605,-122.2091736
1,1,Weekday,Northbound,19,HIGH STREET,285.5366937,311.9617163,37.77164868,-122.2134194
1,1,Weekday,Northbound,20,39TH AVENUE,171.7836866,201.9697397,37.77451304,-122.2194537
1,1,Weekday,Northbound,21,FRUITVALE,397.7198386,860.2758035,37.77652785,-122.2236383
1,1,Weekday,Northbound,22,31ST AVENUE,150.7323758,127.3746146,37.77815167,-122.2270274
1,1,Weekday,Northbound,23,28TH AVENUE,148.2653686,167.4557027,37.78007493,-122.2303937
1,1,Weekday,Northbound,24,24TH AVENUE,173.8163765,271.6948789,37.78263692,-122.2346676
1,1,Weekday,Northbound,25,20TH AVENUE,113.6445307,157.4492267,37.78571368,-122.2397931
1,1,Weekday,Northbound,26,14TH AVENUE NB,93.59472648,138.290707,37.78928459,-122.2458349
1,1,Weekday,Northbound,27,10TH AVENUE NB,117.8689689,154.210984,37.79194395,-122.2495457
1,1,Weekday,Northbound,28,5TH AVENUE NB,123.8697489,152.1280693,37.79596171,-122.2541178
1,1,Weekday,Northbound,29,2ND AVENUE NB,95.6641951,140.3669109,37.79781559,-122.2561855
1,1,Weekday,Northbound,30,MADISON NB,51.08446167,192.3143544,37.80006346,-122.2647312
1,1,Weekday,Northbound,31,HARRISON NB,19.66503741,233.9045603,37.80190855,-122.2694501
1,1,Weekday,Northbound,32,CITY CENTER NB,20.99655917,520.0088893,37.8027707,-122.2715642
1,1,Weekday,Northbound,33,14TH STREET NB,20.33349914,411.596861,37.80462514,-122.2711169
1,1,Weekday,Northbound,34,UPTOWN OAKLAND NB,0.119047619,361.6313244,37.80735816,-122.2692857
1,1,Weekday,Southbound,1,UPTOWN OAKLAND SB,706.1435386,0.734224193,37.80644557,-122.2699802
1,1,Weekday,Southbound,2,14TH STREET SB,206.6022963,16.05652917,37.80403699,-122.2715317
1,1,Weekday,Southbound,3,CITY CENTER SB,494.4816133,45.20859467,37.80188766,-122.2719107
1,1,Weekday,Southbound,4,HARRISON SB,198.7062715,29.48706247,37.80042256,-122.2679763
1,1,Weekday,Southbound,5,MADISON SB,128.3863176,35.65235674,37.79948155,-122.2656144
1,1,Weekday,Southbound,6,2ND AVENUE SB,175.3386581,123.079527,37.79692429,-122.25708
1,1,Weekday,Southbound,7,5TH AVENUE SB,153.3687925,129.1743638,37.79365537,-122.2533197
1,1,Weekday,Southbound,8,10TH AVENUE SB,97.85224106,88.62229556,37.79037762,-122.2496023
1,1,Weekday,Southbound,9,14TH AVENUE SB,109.6736404,77.0808414,37.78877486,-122.2464139
1,1,Weekday,Southbound,10,20TH AVENUE,181.209587,99.17073573,37.78558028,-122.2396518
1,1,Weekday,Southbound,11,24TH AVENUE,279.7967296,164.3873894,37.78250767,-122.2345257
1,1,Weekday,Southbound,12,28TH AVENUE,171.9923197,134.9421923,37.77991762,-122.2302058
1,1,Weekday,Southbound,13,31ST AVENUE,155.8714076,128.0043553,37.77804726,-122.2268652
1,1,Weekday,Southbound,14,FRUITVALE,797.6551767,410.1346613,37.77639487,-122.2234348
1,1,Weekday,Southbound,15,39TH AVENUE,233.8276126,175.7426556,37.7744043,-122.2192995
1,1,Weekday,Southbound,16,HIGH STREET,314.2247502,335.9791102,37.77151075,-122.2131746
1,1,Weekday,Southbound,17,48TH AVENUE,140.0759924,180.2624748,37.76954183,-122.2090275
1,1,Weekday,Southbound,18,54TH AVENUE,92.25233544,149.5552562,37.7679888,-122.2057065
1,1,Weekday,Southbound,19,SEMINARY,139.7910504,278.6593213,37.76545386,-122.2005339
1,1,Weekday,Southbound,20,63RD AVENUE,141.7693188,210.67342,37.76339334,-122.196071
1,1,Weekday,Southbound,21,67TH AVENUE,115.6370952,176.5262444,37.76127927,-122.191483
1,1,Weekday,Southbound,22,73RD AVENUE,176.6547773,294.2202328,37.75978086,-122.1883527
1,1,Weekday,Southbound,23,77TH AVENUE,129.8799588,205.868721,37.7580156,-122.1846266
1,1,Weekday,Southbound,24,82ND AVENUE,140.7567359,284.0443589,37.75567775,-122.1797128
1,1,Weekday,Southbound,25,86TH AVENUE,115.899839,193.934368,37.75223751,-122.1763835
1,1,Weekday,Southbound,26,90TH AVENUE,121.9137843,231.1934916,37.74927842,-122.174193
1,1,Weekday,Southbound,27,95TH AVENUE,99.25410847,262.22862,37.74595507,-122.1717255
1,1,Weekday,Southbound,28,98TH AVENUE,114.7947097,206.5427981,37.74332312,-122.1697882
1,1,Weekday,Southbound,29,103RD AVENUE,117.7207421,224.656392,37.74061602,-122.1677504
1,1,Weekday,Southbound,30,DURANT AVENUE,75.07723622,124.5081829,37.7355987,-122.1640021
1,1,Weekday,Southbound,31,GEORGIA WAY SB,27.28105568,46.75710917,37.73203332,-122.1614619
1,1,Weekday,Southbound,32,SAN LEANDRO CIVIC CENTER SB,18.09973978,43.14894272,37.72842798,-122.1587914
1,1,Weekday,Southbound,33,DOWNTOWN SAN LEANDRO SB,22.26537425,399.4053067,37.72541683,-122.157913
1,1,Weekday,Southbound,34,HAYS ST & W ESTUDILLO AV,0,0,37.72469,-122.15804
1,1,Weekday,Southbound,34,SAN LEANDRO BART,0.023809524,697.1042105,37.72162568,-122.160144
6,6,Weekday,Northbound,1,10TH ST & WASHINGTON ST,167.7811306,0.108539765,37.80268851,-122.2743589
6,6,Weekday,Northbound,3,BROADWAY & 12TH ST,62.85138477,40.40695018,37.80319547,-122.2720004
6,6,Weekday,Northbound,4,BROADWAY & 15TH ST,280.3143712,27.78699706,37.80507187,-122.2707352
6,6,Weekday,Northbound,5,BROADWAY & 17TH ST,83.01433692,4.927370273,37.80649107,-122.2698059
6,6,Weekday,Northbound,6,TL BERKLEY WAY,129.8910291,14.65925526,37.80954533,-122.269358
6,6,Weekday,Northbound,7,TELEGRAPH AV & 24TH ST,94.59609937,63.0690917,37.81407143,-122.2683619
6,6,Weekday,Northbound,8,TELEGRAPH AV & 27TH ST,71.16634898,29.62233921,37.8165312,-122.2678229
6,6,Weekday,Northbound,9,TELEGRAPH AV & 30TH ST,65.010205,50.1284959,37.81969274,-122.2669685
6,6,Weekday,Northbound,10,TELEGRAPH AV & 34TH ST,33.44132097,25.05780741,37.82266456,-122.2661515
6,6,Weekday,Northbound,11,TELEGRAPH AV & 38TH ST,186.3232833,105.5913983,37.82780701,-122.2647765
6,6,Weekday,Northbound,12,TELEGRAPH AV & 45TH ST,70.70164016,151.358853,37.83332045,-122.2632816
6,6,Weekday,Northbound,13,TELEGRAPH AV & 40TH ST,20,28,37.83065238,-122.2650145
6,6,Weekday,Northbound,13,TELEGRAPH AV & CLAREMONT AV,76.2044487,130.7901711,37.83844826,-122.2620713
6,6,Weekday,Northbound,14,TELEGRAPH AV & 55TH ST,20.64610435,27.75443724,37.8400489,-122.2618372
6,6,Weekday,Northbound,15,TELEGRAPH AV & AILEEN ST,8.182052175,13.54811954,37.84168964,-122.2615893
6,6,Weekday,Northbound,16,TELEGRAPH AV & 59TH ST.,24.46307894,32.84131934,37.84528609,-122.261106
6,6,Weekday,Northbound,17,TELEGRAPH AV & 62ND ST,20.45582914,21.63997809,37.84787218,-122.2607359
6,6,Weekday,Northbound,18,TELEGRAPH AV & ALCATRAZ AV,41.57961094,47.69891616,37.85047614,-122.2604023
6,6,Weekday,Northbound,19,TELEGRAPH AV & PRINCE ST,31.47138252,18.43397727,37.85362247,-122.2599564
6,6,Weekday,Northbound,20,TELEGRAPH AV & WEBSTER ST,51.58324461,35.67442095,37.85509765,-122.2597471
6,6,Weekday,Northbound,21,TELEGRAPH AV & ASHBY AV,48.08046857,27.28591598,37.85600877,-122.2596381
6,6,Weekday,Northbound,22,TELEGRAPH AV & RUSSELL ST,27.5651144,19.55096845,37.85793813,-122.2593767
6,6,Weekday,Northbound,23,TELEGRAPH AV & STUART ST,36.20623023,16.5746391,37.85991318,-122.2590719
6,6,Weekday,Northbound,24,TELEGRAPH AV & DERBY ST,28.25427348,29.30394235,37.86161638,-122.2588621
6,6,Weekday,Northbound,25,TELEGRAPH AV & PARKER ST,70.0739023,49.68038635,37.86307784,-122.2586506
6,6,Weekday,Northbound,26,TELEGRAPH AV & DWIGHT WAY,62.03646905,98.50875493,37.86497429,-122.2584058
6,6,Weekday,Northbound,27,TELEGRAPH AV & HASTE ST,38.88052722,114.2914655,37.86628576,-122.2586641
6,6,Weekday,Northbound,28,BANCROFT WAY & TELEGRAPH AV,38.29117561,369.4041086,37.86863956,-122.2602145
6,6,Weekday,Northbound,29,BANCROFT WAY & DANA ST,11.61378254,55.31994934,37.86842677,-122.2620769
6,6,Weekday,Northbound,30,BANCROFT WAY & ELLSWORTH ST,5.275626277,59.17665517,37.86816578,-122.264104
6,6,Weekday,Northbound,31,ADDISON ST & OXFORD ST,0.192307692,173.7965397,37.87031446,-122.2674293
6,6,Weekday,Southbound,1,ADDISON ST & OXFORD ST,342.7820753,0.176623377,37.8702988,-122.2673856
6,6,Weekday,Southbound,2,SHATTUCK AV & ALLSTON WAY,222.4887133,229.3973333,37.86931483,-122.2680222
6,6,Weekday,Southbound,3,SHATTUCK AV & KITTREDGE ST,132.3476249,147.4071818,37.86824305,-122.2679527
6,6,Weekday,Southbound,4,DURANT AV & SHATTUCK AV,99.59997251,16.78749767,37.86669112,-122.2671896
6,6,Weekday,Southbound,5,DURANT AV & ELLSWORTH ST,29.69844484,10.94869573,37.86721036,-122.2632206
6,6,Weekday,Southbound,6,DURANT AV & DANA ST,228.3041667,70.15893192,37.86745334,-122.2614297
6,6,Weekday,Southbound,7,DANA ST & HASTE ST,55.85595547,41.30544699,37.86583157,-122.2609783
6,6,Weekday,Southbound,8,TELEGRAPH AV & DWIGHT WAY,155.3036007,75.32160699,37.8645656,-122.258601
6,6,Weekday,Southbound,9,TELEGRAPH AV & PARKER ST,61.32706323,40.34138015,37.86292588,-122.2588576
6,6,Weekday,Southbound,10,TELEGRAPH AV & DERBY ST,29.16040231,21.43410823,37.86116082,-122.2591081
6,6,Weekday,Southbound,11,TELEGRAPH AV & STUART ST,20.89812021,23.14178568,37.85970118,-122.2593596
6,6,Weekday,Southbound,12,TELEGRAPH AV & RUSSELL ST,21.74182382,21.62595222,37.8577812,-122.2596148
6,6,Weekday,Southbound,13,TELEGRAPH AV & ASHBY AV,26.04668181,38.25897709,37.85640653,-122.2598059
6,6,Weekday,Southbound,14,TELEGRAPH AV & WEBSTER ST,55.13091866,70.24465016,37.8553413,-122.2599098
6,6,Weekday,Southbound,15,TELEGRAPH AV & ALCATRAZ AV,51.16842115,50.46698409,37.85039206,-122.2606007
6,6,Weekday,Southbound,16,TELEGRAPH AV & 62ND ST,15.71145167,23.14780534,37.84804628,-122.2609486
6,6,Weekday,Southbound,17,TELEGRAPH AV & 60TH ST,9.113317958,7.611923259,37.84657091,-122.2611398
6,6,Weekday,Southbound,18,TELEGRAPH AV & 59TH ST,23.48914961,15.93056012,37.84476864,-122.2613954
6,6,Weekday,Southbound,19,TELEGRAPH AV & 58TH ST,13.01985098,8.345726684,37.84352605,-122.2615703
6,6,Weekday,Southbound,20,TELEGRAPH AV & AILEEN ST,6.507830829,7.306986162,37.84190835,-122.2617963
6,6,Weekday,Southbound,21,TELEGRAPH AV & 55TH ST,29.3738992,26.27726168,37.84037528,-122.2620077
6,6,Weekday,Southbound,22,TELEGRAPH AV & 52ND ST,61.08892779,41.24462529,37.83819285,-122.262303
6,6,Weekday,Southbound,23,TELEGRAPH AV & 51ST ST,87.27479728,50.21918919,37.83693252,-122.2624556
6,6,Weekday,Southbound,24,TELEGRAPH AV & 45TH ST,110.782099,46.95011428,37.83322317,-122.2634811
6,6,Weekday,Southbound,26,TELEGRAPH AV & 40TH ST,93.19357173,136.7533171,37.82950094,-122.2644436
6,6,Weekday,Southbound,26,TELEGRAPH AV & W MACARTHUR B,47.99251052,43.83705966,37.82615507,-122.265376
6,6,Weekday,Southbound,27,TELEGRAPH AV & 34TH ST,31.82809607,37.40820125,37.82228203,-122.266413
6,6,Weekday,Southbound,28,TELEGRAPH AV & 32ND ST,0.84385625,1.323523712,37.82104666,-122.266774
6,6,Weekday,Southbound,29,TELEGRAPH AV & 30TH ST,61.21430422,65.13110185,37.81880754,-122.2673781
6,6,Weekday,Southbound,30,TELEGRAPH AV & 27TH ST,24.02543922,80.97678425,37.81591355,-122.2678622
6,6,Weekday,Southbound,31,TELEGRAPH AV & 24TH ST,29.94222429,70.31069932,37.81260195,-122.2666777
6,6,Weekday,Southbound,32,TL BERKLEY WAY & TELEGRAPH A,19.96006219,147.5373525,37.80860057,-122.2688284
6,6,Weekday,Southbound,33,BROADWAY & 17TH ST,6.990226227,85.82559991,37.80635529,-122.2700565
6,6,Weekday,Southbound,34,BROADWAY & 12TH ST,9.022533797,317.0613004,37.80311224,-122.2720658
6,6,Weekday,Southbound,35,10TH ST & WASHINGTON ST,0.121553885,150.6893243,37.8026238,-122.2743443
7,7,Weekday,Northbound,1,ALLSTON WAY & SHATTUCK AV,61.06986151,0,37.86997347,-122.2676302
7,7,Weekday,Northbound,2,SHATTUCK AV & UNIVERSITY AV,92.42521596,22.12638146,37.87246583,-122.2683364
7,7,Weekday,Northbound,3,SHATTUCK AV & DELAWARE ST,10.21678126,3.589372147,37.87522782,-122.2686314
7,7,Weekday,Northbound,4,SHATTUCK AV & VIRGINIA ST,4.175143729,1.122868798,37.87651381,-122.2687559
7,7,Weekday,Northbound,5,SHATTUCK AV & CEDAR ST,4.923639106,4.24738913,37.87832819,-122.2689737
7,7,Weekday,Northbound,6,SHATTUCK AV & VINE ST,7.528727645,10.47785964,37.88010971,-122.2691834
7,7,Weekday,Northbound,7,SHATTUCK PL & ROSE ST,5.722763756,10.51593627,37.88184794,-122.2700613
7,7,Weekday,Northbound,8,HENRY ST & BERRYMAN ST,0.84491342,2.570068657,37.88361673,-122.2705336
7,7,Weekday,Northbound,9,SUTTER ST & HOPKINS ST,1.465588578,3.529982517,37.88849409,-122.2718291
7,7,Weekday,Northbound,10,THE ALAMEDA & SOLANO AV,7.347981185,19.64065379,37.89113541,-122.2769309
7,7,Weekday,Northbound,11,MARIN AV & LASSEN ST,0.15,0.745075758,37.8892301,-122.2749419
7,7,Weekday,Northbound,12,MARIN AV & THE CIRCLE,1.288095238,3.011147186,37.89002065,-122.272809
7,7,Weekday,Northbound,13,ARLINGTON AV & INDIAN ROCK P,0.659462759,2.561897824,37.89199313,-122.2739336
7,7,Weekday,Northbound,14,ARLINGTON AV & MENDOCINO PAT,0,1.459203297,37.89311814,-122.2746365
7,7,Weekday,Northbound,15,ARLINGTON AV & SOUTHAMPTON A,0.22275641,3.688782051,37.89454122,-122.2742404
7,7,Weekday,Northbound,16,ARLINGTON AV & THOUSAND OAKS,0.320075758,3.328700466,37.89727495,-122.2752229
7,7,Weekday,Northbound,17,ARLINGTON AV & SAN FERNANDO,0.139423077,1.386271082,37.8989599,-122.2760251
7,7,Weekday,Northbound,18,ARLINGTON AV & SAN LUIS RD,1.010227273,4.713927739,37.90102788,-122.2763809
7,7,Weekday,Northbound,19,ARLINGTON AV & BOYNTON PATH,0.416889483,4.489452214,37.90197144,-122.2758537
7,7,Weekday,Northbound,20,ARLINGTON AV & AMHERST AV,3.700757576,15.87537879,37.90358824,-122.2775566
7,7,Weekday,Northbound,21,ARLINGTON AV & WELLESLEY AV,0.592074592,2.008741259,37.90756574,-122.27927
7,7,Weekday,Northbound,22,ARLINGTON AV & SUNSET DR,0.423736802,1.579574592,37.90838124,-122.2801619
7,7,Weekday,Northbound,23,ARLINGTON AV & WESTMINSTER A,0.832040998,3.014412793,37.91048148,-122.2801639
7,7,Weekday,Northbound,24,ARLINGTON AV & KENSINGTON PA,1.325577609,3.81846291,37.91313663,-122.2813571
7,7,Weekday,Northbound,25,ARLINGTON AV & COWPER AV,0.837990196,1.828409091,37.9153766,-122.2828558
7,7,Weekday,Northbound,26,ARLINGTON AV & HIGHLAND BLVD,0.320512821,1.780448718,37.91708154,-122.2842071
7,7,Weekday,Northbound,27,ARLINGTON BLVD & MOESER LN,1.168560606,5.445483683,37.91951936,-122.2867468
7,7,Weekday,Northbound,28,ARLINGTON BLVD & DON CAROL D,0.226923077,1.591666667,37.92103702,-122.2890811
7,7,Weekday,Northbound,29,ARLINGTON BLVD & VILLA NUEVA,0,0.487179487,37.92173833,-122.2911121
7,7,Weekday,Northbound,30,ARLINGTON BLVD & BREWSTER DR,0.925,4.5879662,37.92234229,-122.2924986
7,7,Weekday,Northbound,31,ARLINGTON BLVD & RIFLE RANGE,0.416666667,1.783828671,37.92559745,-122.2943409
7,7,Weekday,Northbound,32,ARLINGTON BLVD & BREWSTER DR,0,0.568997669,37.92777893,-122.2963395
7,7,Weekday,Northbound,33,ARLINGTON BLVD & MADERA DR,1.040329768,1.308473879,37.92932578,-122.2988166
7,7,Weekday,Northbound,34,ARLINGTON BLVD & #1529,0,0.25,37.92956989,-122.3004499
7,7,Weekday,Northbound,35,ARLINGTON BLVD & POTRERO AV,0.803846154,0.481818182,37.92976213,-122.3045677
7,7,Weekday,Northbound,36,ARLINGTON BLVD & SCENIC ST,0,0.563665501,37.9304998,-122.306541
7,7,Weekday,Northbound,37,ARLINGTON BLVD & CUTTING BLV,0.48355615,3.612338887,37.93255888,-122.3093829
7,7,Weekday,Northbound,38,BARRETT AV & ARLINGTON BLVD,0.487179487,2.55963938,37.93502603,-122.3080072
7,7,Weekday,Northbound,39,BARRETT AV & #6509,0.67473262,1.659994172,37.9359482,-122.3089438
7,7,Weekday,Northbound,40,BARRETT AV & CARQUINEZ AV,2.892509941,6.030412725,37.93644902,-122.3118891
7,7,Weekday,Northbound,41,BARRETT AV & TULARE AV,2.630001371,3.14489579,37.93638523,-122.3144503
7,7,Weekday,Northbound,42,BARRETT AV & EDWARDS AV,0.25,1.118589744,37.93661989,-122.3162043
7,7,Weekday,Northbound,43,BARRETT AV & YUBA ST,0.920361991,2.967006033,37.93616592,-122.3175781
7,7,Weekday,Northbound,44,BARRETT AV & TULLER AV,0.174242424,0.755332168,37.93554027,-122.3195009
7,7,Weekday,Northbound,45,BARRETT AV & MOUNT ST,0,0.25,37.93517112,-122.3217809
7,7,Weekday,Northbound,46,BARRETT AV & MC LAUGHLIN ST,1.054307212,3.426767105,37.93569162,-122.324058
7,7,Weekday,Northbound,47,SAN PABLO AV & MACDONALD AV,2.153059441,5.826194639,37.93308508,-122.3241167
7,7,Weekday,Northbound,48,SAN PABLO AV & HOME DEPOT,0.950980392,2.564423077,37.92919214,-122.3213507
7,7,Weekday,Northbound,49,SAN PABLO AV & WALL AV,0.166666667,1.176602564,37.92761502,-122.3202229
7,7,Weekday,Northbound,50,DEL NORTE BART,0,44.32093446,37.92482799,-122.3172766
7,7,Weekday,Southbound,1,DEL NORTE BART,54.49501193,0,37.92429788,-122.3164615
7,7,Weekday,Southbound,2,SAN PABLO AV & WALL AV,3.110628261,0.63228022,37.92782902,-122.3200469
7,7,Weekday,Southbound,3,SAN PABLO AV & CONLON AV,1.112179487,0.333333333,37.92981003,-122.3214368
7,7,Weekday,Southbound,4,SAN PABLO AV & MACDONALD AV,5.617156863,1.266666667,37.93271468,-122.3235131
7,7,Weekday,Southbound,5,BARRETT AV & SAN PABLO AV,4.581509667,0.518589744,37.93533869,-122.324686
7,7,Weekday,Southbound,6,BARRETT AV & KEY BLVD,1.602286439,1.166666667,37.93571207,-122.3233667
7,7,Weekday,Southbound,7,BARRETT AV & MOUNT ST,1.690893665,0.708333333,37.9350032,-122.3217497
7,7,Weekday,Southbound,8,BARRETT AV & HARRIS AV,0.375,0,37.93495107,-122.3197723
7,7,Weekday,Southbound,9,BARRETT AV & YUBA ST,1.424679487,0.870512821,37.93600456,-122.3178729
7,7,Weekday,Southbound,10,BARRETT AV & EDWARDS AV,0.779166667,0.340909091,37.93641887,-122.316525
7,7,Weekday,Southbound,11,BARRETT AV & TULARE AV,3.156783902,3.031482243,37.93630369,-122.3147476
7,7,Weekday,Southbound,12,BARRETT AV & CARQUINEZ AV,4.211176813,5.100426779,37.93634479,-122.3118044
7,7,Weekday,Southbound,13,BARRETT AV & LA HONDA AV,1.553846154,1.104166667,37.93597817,-122.309323
7,7,Weekday,Southbound,14,BARRETT AV & ARLINGTON BLVD,2.663950021,2.224754902,37.93481107,-122.3080035
7,7,Weekday,Southbound,15,ARLINGTON BLVD & CUTTING BLV,4.624760044,2.729781983,37.93248878,-122.3095575
7,7,Weekday,Southbound,16,ARLINGTON BLVD & #1749,0.335227273,0.388480392,37.93003157,-122.3064276
7,7,Weekday,Southbound,17,ARLINGTON BLVD & POTRERO AV,0.443001851,0.287990196,37.92955812,-122.3048337
7,7,Weekday,Southbound,18,ARLINGTON BLVD & #1525,0.524038462,0.183823529,37.92946877,-122.3000641
7,7,Weekday,Southbound,19,ARLINGTON BLVD & MADERA DR,0.782745441,1.657308378,37.92921278,-122.2990041
7,7,Weekday,Southbound,20,ARLINGTON BLVD & BREWSTER DR,0.5625,1.175222816,37.92751083,-122.296316
7,7,Weekday,Southbound,21,ARLINGTON BLVD & BUCKINGHAM,1.092191142,1.246983409,37.92520588,-122.2942264
7,7,Weekday,Southbound,22,ARLINGTON BLVD & BREWSTER DR,3.970720211,2.323246606,37.92224124,-122.2926568
7,7,Weekday,Southbound,23,ARLINGTON BLVD & HAVENS PL,1.172348485,0.878787879,37.92168536,-122.2912598
7,7,Weekday,Southbound,24,ARLINGTON BLVD & DON CAROL D,1.582870561,0.708993213,37.92091994,-122.2888625
7,7,Weekday,Southbound,25,ARLINGTON BLVD & MOESER LN,3.042904155,2.201335184,37.91953583,-122.2869078
7,7,Weekday,Southbound,26,ARLINGTON BLVD & LAMM CT,2.229860825,0.716346154,37.91710232,-122.284385
7,7,Weekday,Southbound,27,ARLINGTON AV & RINCON DR,1.008012821,1.082861991,37.915802,-122.2831712
7,7,Weekday,Southbound,28,ARLINGTON AV & RINCON DR,2.554778555,1.972202797,37.91277963,-122.2814142
7,7,Weekday,Southbound,29,ARLINGTON AV & WESTMINSTER A,2.528971274,2.298779652,37.91065525,-122.2802452
7,7,Weekday,Southbound,30,ARLINGTON AV & SUNSET DR,2.339058001,0.736236802,37.90798431,-122.2798566
7,7,Weekday,Southbound,31,ARLINGTON AV & OBERLIN AV,1.213888318,1.281177156,37.90710365,-122.2791574
7,7,Weekday,Southbound,32,ARLINGTON AV & COVENTRY RD,7.670737351,3.369343891,37.90395519,-122.2776926
7,7,Weekday,Southbound,33,ARLINGTON AV & BOYNTON AV,2.961625874,0.508012821,37.90205226,-122.2760497
7,7,Weekday,Southbound,34,ARLINGTON AV & SAN LUIS RD,3.910722611,0.283333333,37.90089155,-122.2769628
7,7,Weekday,Southbound,35,ARLINGTON AV & SAN ANTONIO A,1.236742424,0.166666667,37.8990789,-122.2767507
7,7,Weekday,Southbound,36,ARLINGTON AV & THOUSAND OAKS,1.618899973,0.498484848,37.89742484,-122.2757029
7,7,Weekday,Southbound,37,ARLINGTON AV & YOSEMITE RD,2.051746538,0.145833333,37.89508432,-122.2747253
7,7,Weekday,Southbound,38,ARLINGTON AV & MENDOCINO AV,0.766317016,0.257575758,37.89335778,-122.2742504
7,7,Weekday,Southbound,39,ARLINGTON AV & INDIAN ROCK P,0.574412108,0.264423077,37.89214537,-122.2736478
7,7,Weekday,Southbound,40,MARIN AV & ARLINGTON CIR,0.884178322,0.567059166,37.89003224,-122.2723306
7,7,Weekday,Southbound,41,MARIN AV & LASSEN ST,0,0.0625,37.8893789,-122.2747501
7,7,Weekday,Southbound,42,THE ALAMEDA & MARIN AV,0.600378788,2.602272727,37.88872128,-122.2763884
7,7,Weekday,Southbound,43,SOLANO AV & THE ALAMEDA,4.276461039,4.476461039,37.89111978,-122.2762457
7,7,Weekday,Southbound,44,SUTTER ST & HOPKINS ST,5.108333333,1.619101732,37.88858794,-122.2725076
7,7,Weekday,Southbound,45,SUTTER ST & YOLO AV,0.961829837,0.243589744,37.88611561,-122.2714435
7,7,Weekday,Southbound,46,HENRY ST & BERRYMAN ST,3.202154463,1.425339367,37.88337463,-122.2707954
7,7,Weekday,Southbound,47,SHATTUCK PL & ROSE ST,8.28217126,4.251131222,37.88169348,-122.2703072
7,7,Weekday,Southbound,48,SHATTUCK AV & VINE ST,10.61984094,4.400615316,37.88034547,-122.2694319
7,7,Weekday,Southbound,49,SHATTUCK AV & CEDAR ST,7.177824626,2.717665913,37.87855297,-122.2692171
7,7,Weekday,Southbound,50,SHATTUCK AV & VIRGINIA ST,1.672794118,3.638189017,37.87634848,-122.268981
7,7,Weekday,Southbound,52,OXFORD ST & HEARST AV,2.13368127,15.83408748,37.87385947,-122.2663864
7,7,Weekday,Southbound,53,OXFORD ST & UNIVERSITY AV,4.008012821,15.69842657,37.8721734,-122.2662078
7,7,Weekday,Southbound,54,ALLSTON WAY & SHATTUCK AV,0,79.36487385,37.86997932,-122.2676494
10,10,Weekday,Northbound,1,HAYWARD BART,130.7224794,0.635201779,37.67017614,-122.0867293
10,10,Weekday,Northbound,2,C ST & MISSION BLVD,162.4032122,55.57607657,37.67089241,-122.0831051
10,10,Weekday,Northbound,3,MAIN ST & B ST,30.66596603,6.905633423,37.67319068,-122.0829459
10,10,Weekday,Northbound,4,MISSION BLVD & GRACE ST,10.27996695,1.001834657,37.67498906,-122.0872404
10,10,Weekday,Northbound,5,MISSION BLVD & SUNSET BLVD,20.60750305,5.945815672,37.67780785,-122.0907377
10,10,Weekday,Northbound,6,MISSION BLVD & GROVE WAY,11.56478529,7.154412156,37.68056842,-122.0941942
10,10,Weekday,Northbound,7,MISSION BLVD & BLOSSOM WAY,7.813536539,5.395241339,37.6818667,-122.0957947
10,10,Weekday,Northbound,8,MISSION BLVD & CHERRY WAY,3.195757438,4.957029208,37.68322289,-122.0974782
10,10,Weekday,Northbound,9,MISSION BLVD & MEDFORD AV,46.27728106,21.25800374,37.68492027,-122.0995719
10,10,Weekday,Northbound,10,MISSION BLVD & E LEWELLING B,18.81097009,12.63041998,37.68820559,-122.1040651
10,10,Weekday,Northbound,11,E 14TH ST & 170TH AV,1.97669262,1.941992521,37.69068958,-122.1076617
10,10,Weekday,Northbound,12,E 14TH ST & 167TH AV,54.43543584,24.39110448,37.69244635,-122.1101813
10,10,Weekday,Northbound,13,E 14TH ST & 164TH AV,65.37856752,27.51428407,37.69502216,-122.1138452
10,10,Weekday,Northbound,14,E 14TH ST & 163RD AV,19.73327371,11.58135783,37.69632518,-122.1156749
10,10,Weekday,Northbound,15,E 14TH ST & ASHLAND AV,12.1666043,9.169278077,37.69863569,-122.1189992
10,10,Weekday,Northbound,16,159TH AV & E 14TH ST,7.248805679,17.74255744,37.69938836,-122.121216
10,10,Weekday,Northbound,17,COELHO DR & MOONEY AV,1.274697235,11.85499232,37.69839666,-122.1247793
10,10,Weekday,Northbound,18,BAY FAIR BART,106.7398725,140.8663877,37.69683479,-122.1261258
10,10,Weekday,Northbound,19,COELHO DR & MOONEY AV,2.906741812,1.674502315,37.69827014,-122.1245164
10,10,Weekday,Northbound,20,E 14TH ST & 159TH AV,26.83707859,10.21628,37.70024182,-122.1212388
10,10,Weekday,Northbound,21,E 14TH ST & BAYFAIR DR,12.46905169,6.666933401,37.70217937,-122.1239782
10,10,Weekday,Northbound,22,E 14TH ST & 153RD AV,27.10750321,20.01473361,37.70376706,-122.1262827
10,10,Weekday,Northbound,23,E 14TH ST & 150TH AV,32.15645323,19.00560173,37.70607144,-122.1295199
10,10,Weekday,Northbound,24,E 14TH ST & 148TH AV,13.9811012,11.18639309,37.70843289,-122.1328831
10,10,Weekday,Northbound,25,E 14TH ST & 145TH AV,14.02820117,18.16418673,37.71047581,-122.1358174
10,10,Weekday,Northbound,26,E 14TH ST & 143RD AV,26.78728409,18.53539669,37.71196119,-122.1379552
10,10,Weekday,Northbound,27,E 14TH ST & 141ST AV,6.7756442,3.943913407,37.71283771,-122.1392021
10,10,Weekday,Northbound,28,E 14TH ST & SAN LEANDRO BLVD,97.82708261,56.90539387,37.7154881,-122.142837
10,10,Weekday,Northbound,29,E 14TH ST & BLOSSOM WAY,23.51584478,13.1516812,37.71802881,-122.1463388
10,10,Weekday,Northbound,30,E 14TH ST & ESTABROOK ST,16.1535433,16.59527968,37.71945491,-122.1482663
10,10,Weekday,Northbound,31,E 14TH ST & DOLORES AV,11.88426567,49.91791692,37.72308691,-122.1531364
10,10,Weekday,Northbound,32,E 14TH ST & JOAQUIN AV,6.236852018,56.82629365,37.72420316,-122.1546753
10,10,Weekday,Northbound,33,DAVIS ST & CLARKE ST,3.688090795,92.70994256,37.72508674,-122.1587561
10,10,Weekday,Northbound,34,SAN LEANDRO BART,0.178571429,280.4444164,37.72144866,-122.1602704
10,10,Weekday,Southbound,1,SAN LEANDRO BART,187.6349924,0.35226207,37.72131987,-122.1600663
10,10,Weekday,Southbound,2,HAYS ST & W JUANA AV,173.2085283,53.8667804,37.72284184,-122.1564362
10,10,Weekday,Southbound,3,HAYS ST & W ESTUDILLO AV,27.76546609,4.283393023,37.72471678,-122.1575556
10,10,Weekday,Southbound,4,E 14TH ST & W ESTUDILLO AV,99.22904811,5.247073006,37.72524561,-122.1563857
10,10,Weekday,Southbound,5,E 14TH ST & W JUANA AV,30.27327727,6.360921572,37.72363666,-122.1541071
10,10,Weekday,Southbound,6,E 14TH ST & PARROTT ST,36.53225441,5.864063953,37.72251759,-122.1525421
10,10,Weekday,Southbound,7,E 14TH ST & CASTRO ST,5.662746154,4.243595807,37.72068301,-122.1501751
10,10,Weekday,Southbound,8,E 14TH ST & ESTABROOK ST,17.04430995,23.8509556,37.71899663,-122.1478791
10,10,Weekday,Southbound,9,E 14TH ST & CORNWALL WAY,11.16127165,26.84110681,37.71750554,-122.145977
10,10,Weekday,Southbound,10,E 14TH ST & SAN LEANDRO BLVD,18.17781723,55.90707176,37.71549934,-122.1432605
10,10,Weekday,Southbound,11,E 14TH ST & SAN LEANDRO HOSP,50.97044462,29.66015355,37.71435464,-122.1416914
10,10,Weekday,Southbound,12,E 14TH ST & 141ST AV,12.33474447,19.63060974,37.71254518,-122.1391929
10,10,Weekday,Southbound,13,E 14TH ST & 144TH AV,30.12540043,25.84956673,37.7106547,-122.1364786
10,10,Weekday,Southbound,14,E 14TH ST & 148TH AV,11.45003622,15.53084021,37.70880196,-122.1338144
10,10,Weekday,Southbound,15,E 14TH ST & 150TH AV,12.51393635,29.58629669,37.70546081,-122.1290554
10,10,Weekday,Southbound,16,E 14TH ST & FAIRMONT DR,19.13731197,36.81626125,37.70360493,-122.1264087
10,10,Weekday,Southbound,17,E 14TH ST & BAYFAIR DR,9.823421257,21.98036993,37.70146888,-122.123576
10,10,Weekday,Southbound,18,159TH AV & E 14TH ST,5.664454134,24.99623345,37.69934602,-122.1212321
10,10,Weekday,Southbound,19,COELHO DR & MOONEY AV,5.949534339,8.542252348,37.69826233,-122.1249118
10,10,Weekday,Southbound,20,BAY FAIR BART,135.317504,115.3438766,37.69673195,-122.1259663
10,10,Weekday,Southbound,21,COELHO DR & MOONEY AV,7.391736119,1.913923811,37.69824214,-122.1245071
10,10,Weekday,Southbound,22,E 14TH ST & 159TH AV,23.52793295,7.624353259,37.69952022,-122.1206743
10,10,Weekday,Southbound,23,E 14TH ST & ASHLAND AV,11.86132137,14.56445257,37.69813769,-122.1185835
10,10,Weekday,Southbound,24,E 14TH ST & 163RD AV,14.65108292,22.20533942,37.69579241,-122.115265
10,10,Weekday,Southbound,25,E 14TH ST & 164TH AV,27.85354485,73.88318554,37.69454375,-122.1134153
10,10,Weekday,Southbound,26,E 14TH ST & ELGIN ST,15.34524183,55.71766505,37.69182554,-122.1096189
10,10,Weekday,Southbound,27,E 14TH ST & 170TH AV,0.853996651,2.261286139,37.69066104,-122.1079864
10,10,Weekday,Southbound,28,MISSION BLVD & E LEWELLING B,10.9161153,23.47755245,37.68835421,-122.1046639
10,10,Weekday,Southbound,29,MISSION BLVD & MEDFORD AV,21.91554758,42.59642363,37.68427487,-122.0991809
10,10,Weekday,Southbound,30,MISSION BLVD & CHERRY WAY,1.549041991,2.793489821,37.68303571,-122.0976621
10,10,Weekday,Southbound,31,MISSION BLVD & BLOSSOM WAY,7.086790578,8.710556512,37.68177762,-122.0960904
10,10,Weekday,Southbound,32,MISSION BLVD & GROVE WAY,5.019569814,10.37828872,37.67994065,-122.0938159
10,10,Weekday,Southbound,33,MISSION BLVD & SUNSET BLVD,8.961252667,21.6627146,37.67770516,-122.0908881
10,10,Weekday,Southbound,34,MISSION BLVD & GRACE ST,1.774554168,7.394488146,37.6748943,-122.0874491
10,10,Weekday,Southbound,35,B ST & MISSION BLVD,8.029490142,70.16377533,37.67194624,-122.0843538
10,10,Weekday,Southbound,36,HAYWARD BART,0.111111111,198.5608324,37.67020909,-122.0870586
12,12,Weekday,Northbound,1,ALICE ST & 2ND ST,41.31566197,0.146902612,37.79477061,-122.2724506
12,12,Weekday,Northbound,2,EMBARCADERO W & FRANKLIN ST,27.08819311,6.057574519,37.79511976,-122.2756829
12,12,Weekday,Northbound,3,BROADWAY & EMBARCADERO W,7.25255357,0.670448011,37.79569636,-122.2764708
12,12,Weekday,Northbound,4,BROADWAY & 3RD ST,18.46472353,1.785057247,37.79666601,-122.2758587
12,12,Weekday,Northbound,5,BROADWAY & 7TH ST,14.48140223,2.642750409,37.79979821,-122.2738981
12,12,Weekday,Northbound,6,BROADWAY & 11TH ST,49.62689581,18.50750021,37.80209557,-122.2725029
12,12,Weekday,Northbound,7,BROADWAY & 15TH ST,55.17649785,13.92661179,37.80511117,-122.2706371
12,12,Weekday,Northbound,8,BROADWAY & 17TH ST,19.43434502,3.437684001,37.80652385,-122.2697369
12,12,Weekday,Northbound,9,BROADWAY & 20TH ST,48.93415391,7.692366732,37.80930587,-122.2679822
12,12,Weekday,Northbound,10,BROADWAY & 22ND ST,5.742931512,5.259339371,37.81082216,-122.2670379
12,12,Weekday,Northbound,11,GRAND AV & WEBSTER ST,11.70693127,5.95259701,37.81116049,-122.265119
12,12,Weekday,Northbound,12,GRAND AV & HARRISON ST,9.748037163,7.822804388,37.81078379,-122.2628958
12,12,Weekday,Northbound,13,GRAND AV & BELLEVUE AV,12.84318998,8.897636909,37.8098625,-122.2596635
12,12,Weekday,Northbound,14,GRAND AV & PERKINS ST,12.64978605,14.46381921,37.80889445,-122.2563819
12,12,Weekday,Northbound,15,GRAND AV & STATEN AV,7.875911586,7.878691232,37.80870241,-122.2540612
12,12,Weekday,Northbound,16,GRAND AV & EUCLID AV,7.888478208,10.32320002,37.8084987,-122.2514613
12,12,Weekday,Northbound,17,GRAND AV & EL EMBARCADERO,16.4521671,13.04064,37.80947877,-122.2494179
12,12,Weekday,Northbound,18,GRAND AV & LAKE PARK AV,28.41770608,27.20034329,37.81120157,-122.2479477
12,12,Weekday,Northbound,19,GRAND AV & MANDANA BLVD,11.67442379,12.8818531,37.81393734,-122.2463126
12,12,Weekday,Northbound,20,GRAND AV & WELDON AV,7.25722307,16.73934204,37.8162534,-122.2454251
12,12,Weekday,Northbound,21,GRAND AV & WILDWOOD AV,8.814896493,13.38188837,37.81862922,-122.2446517
12,12,Weekday,Northbound,22,GRAND AV & FAIRVIEW AV,2.174221635,1.47809475,37.82005729,-122.2442395
12,12,Weekday,Northbound,23,LINDA AV & GRAND AV,2.213688401,2.315963426,37.82169878,-122.2441671
12,12,Weekday,Northbound,24,LINDA AV & LAKE AV,1.113046974,1.868949457,37.82415849,-122.2470476
12,12,Weekday,Northbound,25,LINDA AV & ROSE AV,5.455361864,4.030135717,37.82517492,-122.2478777
12,12,Weekday,Northbound,26,LINDA AV & GLEN AV,2.664834572,7.420751111,37.8263474,-122.2497681
12,12,Weekday,Northbound,27,LINDA AV & PIEDMONT AV,10.78741527,18.53561117,37.82727337,-122.2509799
12,12,Weekday,Northbound,28,PIEDMONT AV & GLENWOOD AV,10.34712427,13.38796938,37.82801833,-122.2501857
12,12,Weekday,Northbound,29,PIEDMONT AV & ECHO AV,3.791325538,5.476485314,37.82886883,-122.2490646
12,12,Weekday,Northbound,30,PIEDMONT AV & BRANDON ST,3.888048582,4.561218876,37.82976186,-122.24791
12,12,Weekday,Northbound,31,PLEASANT VALLEY AV & MONTGOM,1.448349878,4.392753532,37.83182625,-122.2490801
12,12,Weekday,Northbound,32,PLEASANT VALLEY AV & GILBERT,11.19784361,17.32864684,37.83354952,-122.2502958
12,12,Weekday,Northbound,33,51ST ST & DESMOND ST,15.65653322,7.451815949,37.83514205,-122.2533023
12,12,Weekday,Northbound,34,51ST ST & MANILA AV,1.458977851,2.407320601,37.83605931,-122.2556023
12,12,Weekday,Northbound,35,51ST ST & SHAFTER AV,3.099876131,2.564711817,37.83675553,-122.2580784
12,12,Weekday,Northbound,36,51ST ST & MILES AV,2.506388783,6.19156193,37.83714121,-122.2603483
12,12,Weekday,Northbound,37,TELEGRAPH AV & CLAREMONT AV,15.21832903,16.07619435,37.83842156,-122.2620704
12,12,Weekday,Northbound,38,55TH ST & TELEGRAPH AV,5.579832308,6.351563449,37.84031157,-122.2622657
12,12,Weekday,Northbound,39,55TH ST & SHATTUCK AV,4.520798992,4.871303137,37.84048791,-122.2649562
12,12,Weekday,Northbound,40,55TH ST & DOVER ST,1.018468688,1.521805755,37.84021523,-122.2671505
12,12,Weekday,Northbound,41,ML KING JR WAY & 55TH ST,2.291638346,6.408957139,37.84006476,-122.2695461
12,12,Weekday,Northbound,42,ML KING JR WAY & AILEEN ST,3.404970145,3.564689014,37.84157417,-122.2698315
12,12,Weekday,Northbound,43,ML KING JR WAY & ARLINGTON A,3.517261993,2.674805384,37.84263028,-122.270069
12,12,Weekday,Northbound,44,ML KING JR WAY & 59TH ST,3.949959201,8.212513427,37.84418478,-122.2703895
12,12,Weekday,Northbound,45,ML KING JR WAY & 61ST ST,3.179006804,3.697216146,37.84597638,-122.2707491
12,12,Weekday,Northbound,46,ADELINE ST & ALCATRAZ AV,14.99390449,16.10439472,37.8490923,-122.2710776
12,12,Weekday,Northbound,47,ML KING JR WAY & PRINCE ST,6.641691444,10.88575906,37.8527895,-122.2707653
12,12,Weekday,Northbound,48,ML KING JR WAY & ASHBY AV,16.70792153,8.482248678,37.85454771,-122.2710023
12,12,Weekday,Northbound,49,ML KING JR WAY & RUSSELL ST,9.927076024,6.859884622,37.85636592,-122.2711992
12,12,Weekday,Northbound,50,ML KING JR WAY & STUART ST,3.375820169,2.008393669,37.8581536,-122.2713984
12,12,Weekday,Northbound,51,ML KING JR WAY & DERBY ST,10.78002361,8.573786635,37.85997473,-122.2716139
12,12,Weekday,Northbound,52,ML KING JR WAY & PARKER ST,3.534998516,3.532527494,37.86177624,-122.2718074
12,12,Weekday,Northbound,53,ML KING JR WAY & DWIGHT WAY,7.022842513,8.618729036,37.86360469,-122.2720171
12,12,Weekday,Northbound,54,ML KING JR WAY & CHANNING WA,6.811436716,6.647874611,37.86533576,-122.2722343
12,12,Weekday,Northbound,55,ML KING JR WAY & BANCROFT WA,8.649492693,12.38514416,37.86716651,-122.2724345
12,12,Weekday,Northbound,56,ML KING JR WAY & ALLSTON WAY,20.1698075,20.24498018,37.86846493,-122.2725987
12,12,Weekday,Northbound,57,ML KING JR WAY & UNIVERSITY,24.17086937,49.72013414,37.87200604,-122.2729834
12,12,Weekday,Northbound,58,ML KING JR WAY & HEARST AV,3.392385821,3.659807104,37.8736276,-122.2731594
12,12,Weekday,Northbound,59,ML KING JR WAY & VIRGINIA ST,4.242061921,13.79319274,37.87668723,-122.2735119
12,12,Weekday,Northbound,60,ML KING JR WAY & VINE ST,1.889520879,7.872917011,37.87980226,-122.2738187
12,12,Weekday,Northbound,61,ML KING JR WAY & ROSE ST,1.514928484,11.47538912,37.88170867,-122.2740745
12,12,Weekday,Northbound,62,ML KING JR WAY & BERRYMAN ST,1.110424191,4.256852676,37.88352118,-122.2742517
12,12,Weekday,Northbound,63,HOPKINS ST & THE ALAMEDA,2.450667034,7.780922507,37.88533709,-122.2752033
12,12,Weekday,Northbound,64,HOPKINS ST & BEVERLY PL,1.270570461,4.267293334,37.88438442,-122.276667
12,12,Weekday,Northbound,65,HOPKINS ST & COLUSA AV,0.568459251,5.179854402,37.88292754,-122.2795829
12,12,Weekday,Northbound,66,HOPKINS ST & MONTEREY AV,2.96249183,10.86852667,37.88181595,-122.2818235
12,12,Weekday,Northbound,67,HOPKINS ST & ALBINA AV,1.344417857,3.752165204,37.88057834,-122.2841689
12,12,Weekday,Northbound,68,GILMAN ST & ORDWAY ST,0.992032719,6.381082742,37.88075149,-122.286923
12,12,Weekday,Northbound,69,GILMAN ST & NEILSON ST,1.530900466,11.98996155,37.88123412,-122.288992
12,12,Weekday,Northbound,70,GILMAN ST & SANTA FE AV,0.53209117,5.022210583,37.88148677,-122.2911122
12,12,Weekday,Northbound,71,GILMAN ST & CORNELL AV,0.12134647,8.784236795,37.88102224,-122.2934347
12,12,Weekday,Northbound,72,GILMAN ST & SAN PABLO AV,8.331344669,44.38078166,37.8804718,-122.2963681
12,12,Weekday,Northbound,73,GILMAN ST & 8TH ST,1.03949315,7.344442077,37.87992564,-122.2990438
12,12,Weekday,Northbound,74,GILMAN ST & 6TH ST,0,56.41417755,37.87955574,-122.301865
12,12,Weekday,Southbound,1,GILMAN ST & 7TH ST,54.35083288,0.168253968,37.87999638,-122.2984703
12,12,Weekday,Southbound,2,GILMAN ST & 10TH ST,1.739347919,0.532417582,37.88035603,-122.2962432
12,12,Weekday,Southbound,3,GILMAN ST & SAN PABLO AV,28.31539977,4.713233267,37.88047288,-122.295601
12,12,Weekday,Southbound,4,GILMAN ST & CORNELL AV,6.391270653,0.344387279,37.88096109,-122.2932041
12,12,Weekday,Southbound,5,GILMAN ST & SANTA FE AV,2.509817394,0.205128205,37.88139462,-122.2909828
12,12,Weekday,Southbound,6,GILMAN ST & CURTIS ST,20.80124862,2.331223464,37.88135214,-122.28984
12,12,Weekday,Southbound,7,GILMAN ST & ORDWAY ST,7.054869515,1.352837208,37.88058073,-122.2864529
12,12,Weekday,Southbound,8,HOPKINS ST & SACRAMENTO ST,5.763569982,0.589558881,37.88080971,-122.2834757
12,12,Weekday,Southbound,9,HOPKINS ST & CALIFORNIA ST,15.01287202,2.677493608,37.88159356,-122.2818753
12,12,Weekday,Southbound,10,HOPKINS ST & CARLOTTA AV,7.605232995,3.439927776,37.88253872,-122.2799099
12,12,Weekday,Southbound,11,HOPKINS ST & BEVERLY PL,15.5284846,6.531165764,37.88428215,-122.2765693
12,12,Weekday,Southbound,12,ML KING JR WAY & BERRYMAN ST,4.611800159,1.134699216,37.88290887,-122.2743376
12,12,Weekday,Southbound,13,ML KING JR WAY & ROSE ST,13.19394697,1.728356591,37.88116371,-122.274139
12,12,Weekday,Southbound,14,ML KING JR WAY & VINE ST,8.555983204,1.821573436,37.87926856,-122.2739013
12,12,Weekday,Southbound,15,ML KING JR WAY & CEDAR ST,6.843604848,2.167677528,37.87715824,-122.2737467
12,12,Weekday,Southbound,16,ML KING JR WAY & VIRGINIA ST,8.99357727,1.914655117,37.87566855,-122.273533
12,12,Weekday,Southbound,17,ML KING JR WAY & HEARST AV,8.589844277,2.987155287,37.87272602,-122.2732117
12,12,Weekday,Southbound,18,ML KING JR WAY & UNIVERSITY,35.70164858,17.76256535,37.87075409,-122.2730083
12,12,Weekday,Southbound,19,ML KING JR WAY & ALLSTON WAY,19.49400118,24.07181843,37.86786027,-122.2726884
12,12,Weekday,Southbound,20,ML KING JR WAY & BANCROFT WA,10.46706242,8.818943998,37.866324,-122.2725229
12,12,Weekday,Southbound,21,ML KING JR WAY & CHANNING WA,6.089969984,3.380026495,37.86458396,-122.2723281
12,12,Weekday,Southbound,22,ML KING JR WAY & DWIGHT WAY,10.81738084,7.045254032,37.86291947,-122.2721492
12,12,Weekday,Southbound,23,ML KING JR WAY & PARKER ST,2.385647176,2.521804439,37.86111787,-122.2719492
12,12,Weekday,Southbound,24,ML KING JR WAY & DERBY ST,7.21832328,10.88522662,37.85977766,-122.2717716
12,12,Weekday,Southbound,25,ML KING JR WAY & STUART ST,2.249296073,3.775094374,37.85768612,-122.2715529
12,12,Weekday,Southbound,26,ML KING JR WAY & RUSSELL ST,10.21767134,9.234765347,37.85620489,-122.2714061
12,12,Weekday,Southbound,27,ML KING JR WAY & ASHBY AV,6.542244067,11.72588474,37.8543953,-122.2712065
12,12,Weekday,Southbound,28,ML KING JR WAY & PRINCE ST,8.91023008,9.088166574,37.85257074,-122.2710077
12,12,Weekday,Southbound,29,ADELINE ST & FAIRVIEW ST,5.498379656,7.333812659,37.85078558,-122.2708431
12,12,Weekday,Southbound,30,ADELINE ST & ALCATRAZ AV,11.986675,13.14076565,37.84845346,-122.2717249
12,12,Weekday,Southbound,31,ML KING JR WAY & 61ST ST,4.339590697,5.288969286,37.8457624,-122.271157
12,12,Weekday,Southbound,32,ML KING JR WAY & 59TH ST,6.912309368,3.816337906,37.84399138,-122.2707624
12,12,Weekday,Southbound,33,ML KING JR WAY & ARLINGTON A,1.749147582,2.461511896,37.84254566,-122.2704922
12,12,Weekday,Southbound,34,ML KING JR WAY & AILEEN ST,3.125299971,1.686424029,37.84146774,-122.2702515
12,12,Weekday,Southbound,35,55TH ST & ML KING JR WAY,5.521123461,3.568777342,37.83976883,-122.26921
12,12,Weekday,Southbound,36,55TH ST & DOVER ST,2.059375442,0.917664023,37.83998131,-122.2673532
12,12,Weekday,Southbound,37,55TH ST & SHATTUCK AV,3.158031864,3.442410712,37.84038071,-122.2642221
12,12,Weekday,Southbound,38,55TH ST & TELEGRAPH AV,7.646232674,7.95788069,37.8401355,-122.2621724
12,12,Weekday,Southbound,39,51ST ST & TELEGRAPH AV,19.97557481,13.67789515,37.83710609,-122.2620101
12,12,Weekday,Southbound,40,51ST ST & WEBSTER ST,1.945678139,3.228382883,37.83672329,-122.2592664
12,12,Weekday,Southbound,41,51ST ST & LAWTON AV,2.391850663,2.031372874,37.83607156,-122.2563035
12,12,Weekday,Southbound,42,51ST ST & BROADWAY,12.85627143,18.57229836,37.8345313,-122.2526644
12,12,Weekday,Southbound,43,PLEASANT VALLEY AV & GILBERT,10.56867982,8.674039495,37.83335743,-122.2503912
12,12,Weekday,Southbound,44,PLEASANT VALLEY AV & MONTGOM,2.203754731,1.746052089,37.83157403,-122.2491339
12,12,Weekday,Southbound,45,PIEDMONT AV & PLEASANT VALLE,4.412346345,4.578532319,37.83007062,-122.2477105
12,12,Weekday,Southbound,46,PIEDMONT AV & JOHN ST,4.032394967,2.353878526,37.82909711,-122.2489964
12,12,Weekday,Southbound,47,PIEDMONT AV & GLENWOOD AV,3.00953297,2.388009993,37.82834549,-122.2500256
12,12,Weekday,Southbound,48,PIEDMONT AV & RIDGEWAY AV,8.898975165,10.80464755,37.82759718,-122.2509716
12,12,Weekday,Southbound,49,PIEDMONT AV & 41ST ST,22.25349173,14.92713523,37.82619613,-122.2527716
12,12,Weekday,Southbound,50,GLEN AV & PANAMA CT,7.302893299,2.115931166,37.82531707,-122.2518085
12,12,Weekday,Southbound,51,GLEN AV & LINDA AV,8.750899021,1.42359797,37.82623865,-122.249919
12,12,Weekday,Southbound,52,LINDA AV & ROSE AV,5.593362156,4.937360446,37.8251898,-122.2480916
12,12,Weekday,Southbound,53,LINDA AV & LAKE AV,1.421386882,1.447229195,37.82401189,-122.2470887
12,12,Weekday,Southbound,54,LINDA AV & GRAND AV,2.820325424,2.011006789,37.82154042,-122.2440501
12,12,Weekday,Southbound,55,GRAND AV & SUNNYSIDE AV,1.511612807,1.21270291,37.82057365,-122.2442885
12,12,Weekday,Southbound,56,GRAND AV & JEAN ST,15.6563552,9.037342108,37.81862306,-122.2449235
12,12,Weekday,Southbound,57,GRAND AV & WELDON AV,17.68301106,8.49871544,37.81642802,-122.2456239
12,12,Weekday,Southbound,58,GRAND AV & ELWOOD AV,15.978503,12.71138005,37.81358326,-122.2468098
12,12,Weekday,Southbound,59,GRAND AV & SANTA CLARA AV,26.92189028,20.33487023,37.81165092,-122.2479923
12,12,Weekday,Southbound,60,GRAND AV & MACARTHUR BLVD,12.42263401,14.50446036,37.8103223,-122.2488851
12,12,Weekday,Southbound,61,GRAND AV & EUCLID AV,11.60133247,9.841015729,37.80873822,-122.2514137
12,12,Weekday,Southbound,62,GRAND AV & STATEN AV,6.609661264,6.778595776,37.80887429,-122.2536182
12,12,Weekday,Southbound,63,GRAND AV & PERKINS ST,21.33190395,11.74101229,37.80905891,-122.2559415
12,12,Weekday,Southbound,64,GRAND AV & PARK VIEW TER,7.749838504,8.057604226,37.80982408,-122.2592304
12,12,Weekday,Southbound,65,GRAND AV & HARRISON ST,10.40197138,11.95896513,37.8109747,-122.2620841
12,12,Weekday,Southbound,66,GRAND AV & VALDEZ ST,2.765820549,10.01566371,37.81131914,-122.2645007
12,12,Weekday,Southbound,67,BROADWAY & W GRAND AV,7.667247152,16.07787237,37.81118558,-122.2670722
12,12,Weekday,Southbound,68,BROADWAY & 19TH ST,3.761454741,47.80782151,37.80798595,-122.2690318
12,12,Weekday,Southbound,69,BROADWAY & 17TH ST,4.57484401,16.33173026,37.80633076,-122.2700692
12,12,Weekday,Southbound,70,BROADWAY & 12TH ST,28.87311529,75.18868502,37.80269271,-122.2723397
12,12,Weekday,Southbound,71,BROADWAY & 9TH ST,6.387605245,27.46429627,37.80122033,-122.2732839
12,12,Weekday,Southbound,72,BROADWAY & 7TH ST,0.529075147,2.833282526,37.79924504,-122.2745118
12,12,Weekday,Southbound,73,BROADWAY & 3RD ST,0.969959309,15.36506657,37.79690624,-122.2759273
12,12,Weekday,Southbound,74,EMBARCADERO W & BROADWAY,1.267789403,18.57696958,37.79513708,-122.2764029
12,12,Weekday,Southbound,75,EMBARCADERO W & FRANKLIN ST,1.068416007,7.948213365,37.79472196,-122.2753693
12,12,Weekday,Southbound,76,2ND ST & OAKLAND AMTRAK,11.11267872,28.00047445,37.79405666,-122.2713408
12,12,Weekday,Southbound,77,JACKSON ST & 3RD ST,1.838592388,4.963857638,37.79434491,-122.2700346
12,12,Weekday,Southbound,78,ALICE ST & 2ND ST,0.848651093,34.57118399,37.79476222,-122.2720847
14,14,Weekday,Eastbound,1,WEST OAKLAND BART,95.87981037,0.14,37.80502765,-122.2952878
14,14,Weekday,Eastbound,2,7TH ST & PERALTA ST,57.06821378,32.97441352,37.80605993,-122.2978176
14,14,Weekday,Eastbound,3,7TH ST & WILLOW ST,17.31501579,5.83773312,37.80683483,-122.3011591
14,14,Weekday,Eastbound,4,WOOD ST & 8TH ST,23.56541239,5.89378047,37.80822496,-122.3018031
14,14,Weekday,Eastbound,5,WOOD ST & 12TH ST,37.50852998,18.44368345,37.81172134,-122.2990198
14,14,Weekday,Eastbound,6,14TH ST & WILLOW ST,32.98917818,9.358060213,37.81238846,-122.2960948
14,14,Weekday,Eastbound,7,14TH ST & CENTER ST,27.51912774,7.46686797,37.81097906,-122.2925856
14,14,Weekday,Eastbound,8,14TH ST & MANDELA PKWY,11.50471453,2.231329772,37.81057628,-122.2909279
14,14,Weekday,Eastbound,9,14TH ST & POPLAR ST,14.76369025,3.652807802,37.81007094,-122.2889827
14,14,Weekday,Eastbound,10,14TH ST & ADELINE ST,36.77932943,10.28538361,37.80934083,-122.2857776
14,14,Weekday,Eastbound,11,14TH ST & FILBERT ST,16.37360104,8.073904532,37.80873134,-122.2830621
14,14,Weekday,Eastbound,12,14TH ST & MARKET ST,41.42963715,22.78401882,37.80817717,-122.2811335
14,14,Weekday,Eastbound,13,14TH ST & BRUSH ST,13.67217924,3.26234275,37.80730932,-122.2792435
14,14,Weekday,Eastbound,14,14TH ST & ML KING JR WAY,16.47256142,12.24400154,37.80618151,-122.276165
14,14,Weekday,Eastbound,15,14TH ST & CLAY ST,30.86864316,19.25328649,37.80508544,-122.2733653
14,14,Weekday,Eastbound,16,14TH ST & BROADWAY,151.1457781,99.73398103,37.80439832,-122.271633
14,14,Weekday,Eastbound,17,14TH ST & FRANKLIN ST,45.73283766,27.91196448,37.80384291,-122.2702275
14,14,Weekday,Eastbound,18,14TH ST & HARRISON ST,50.61038373,17.15471121,37.80296128,-122.2679252
14,14,Weekday,Eastbound,19,14TH ST & JACKSON ST,29.39805697,19.56764125,37.80199447,-122.265453
14,14,Weekday,Eastbound,20,14TH ST & OAK ST,39.62546076,22.93987858,37.80107716,-122.2630972
14,14,Weekday,Eastbound,21,1ST AV & INTERNATIONAL BLVD,18.49684912,23.07153353,37.79905128,-122.256552
14,14,Weekday,Eastbound,22,LAKESHORE AV & E 18TH ST,24.21816456,15.63857524,37.80025729,-122.2544289
14,14,Weekday,Eastbound,23,E 18TH ST & 3RD AV,51.10588616,51.9987469,37.79974749,-122.2523008
14,14,Weekday,Eastbound,24,E 18TH ST & 6TH AV,15.13865253,22.88129971,37.79769358,-122.2494468
14,14,Weekday,Eastbound,25,E 18TH ST & 8TH AV,17.60062725,31.7584992,37.79622749,-122.2477891
14,14,Weekday,Eastbound,26,E 18TH ST & 10TH AV,12.72724865,32.42609778,37.79477291,-122.2461395
14,14,Weekday,Eastbound,27,E 18TH ST & 12TH AV,7.736411285,24.54712048,37.79330086,-122.2444803
14,14,Weekday,Eastbound,28,E 18TH ST & 14TH AV,11.79668763,14.04392025,37.79197359,-122.2430014
14,14,Weekday,Eastbound,29,14TH AV & E 21ST ST,7.060352316,15.18509733,37.79360695,-122.2401683
14,14,Weekday,Eastbound,30,E 21ST ST & 17TH AV,5.148359417,12.10308998,37.79275002,-122.2385602
14,14,Weekday,Eastbound,31,E 21ST ST & 19TH AV,16.35209583,30.05350938,37.79150534,-122.2364751
14,14,Weekday,Eastbound,32,E 21ST ST & 21ST AV,11.73950937,35.28486748,37.7902424,-122.2343695
14,14,Weekday,Eastbound,33,23RD AV & E 23RD ST,12.97196586,22.959678,37.79015409,-122.2302353
14,14,Weekday,Eastbound,34,23RD AV & E 24TH ST,3.928844495,13.71799149,37.79070593,-122.2291795
14,14,Weekday,Eastbound,35,23RD AV & E 26TH ST,3.370195186,6.246019472,37.79213126,-122.2276341
14,14,Weekday,Eastbound,36,23RD AV & E 27TH ST,14.42172132,20.59002747,37.79344665,-122.2266742
14,14,Weekday,Eastbound,37,E 27TH ST & 26TH AV,17.04203529,27.74027608,37.7914317,-122.2225496
14,14,Weekday,Eastbound,38,E 27TH ST & FRUITVALE AV,8.477195992,14.17986058,37.79056354,-122.2203893
14,14,Weekday,Eastbound,39,FRUITVALE AV & LYNDE ST,10.22868594,17.05342398,37.79138205,-122.2196534
14,14,Weekday,Eastbound,40,FRUITVALE AV & BROOKDALE AV,7.95601695,15.52364368,37.79343561,-122.2188296
14,14,Weekday,Eastbound,41,FRUITVALE AV & SCHOOL ST,12.00459224,24.42061767,37.79558934,-122.2179686
14,14,Weekday,Eastbound,42,SCHOOL ST & COOLIDGE AV,20.1817763,34.74099604,37.79459767,-122.2123144
14,14,Weekday,Eastbound,43,SCHOOL ST & CURRAN AV,10.02536131,15.90926939,37.79358365,-122.2100221
14,14,Weekday,Eastbound,44,SCHOOL ST & LAUREL AV,7.989499781,14.84255996,37.79268439,-122.2079885
14,14,Weekday,Eastbound,45,35TH AV & SUTER ST,9.826225685,24.27335157,37.79133347,-122.2045916
14,14,Weekday,Eastbound,46,35TH AV & QUIGLEY ST,10.05357366,22.4837445,37.79248247,-122.2026213
14,14,Weekday,Eastbound,47,MACARTHUR BLVD & 38TH AV,32.38100815,47.80998489,37.79086005,-122.1980934
14,14,Weekday,Eastbound,48,MACARTHUR BLVD & MAYBELLE AV,34.60726287,20.15774439,37.78860608,-122.1960625
14,14,Weekday,Eastbound,49,HIGH ST & MACARTHUR BLVD,27.08544603,13.65144996,37.78711556,-122.1953852
14,14,Weekday,Eastbound,50,HIGH ST & PORTER ST,27.49500956,9.109239094,37.78620664,-122.1971724
14,14,Weekday,Eastbound,51,HIGH ST & CULVER ST,28.50462138,7.298724093,37.78513252,-122.1992116
14,14,Weekday,Eastbound,52,HIGH ST & FLEMING AV,33.12224561,15.06039425,37.78376635,-122.2019141
14,14,Weekday,Eastbound,53,HIGH ST & BROOKDALE AV,28.90070742,16.54197515,37.78241984,-122.2044194
14,14,Weekday,Eastbound,54,HIGH ST & SANTA RITA ST,32.68793782,20.6359566,37.77991005,-122.206795
14,14,Weekday,Eastbound,55,HIGH ST & SAN CARLOS AV,13.13050658,8.960290976,37.77854753,-122.208105
14,14,Weekday,Eastbound,56,HIGH ST & CARRINGTON ST,7.500467809,14.78800266,37.77694676,-122.2096161
14,14,Weekday,Eastbound,57,HIGH ST & FOOTHILL BLVD,22.37505457,64.5267904,37.77441282,-122.2122432
14,14,Weekday,Eastbound,58,HIGH ST & INTERNATIONAL BLVD,10.78642664,55.25336772,37.7721186,-122.2152843
14,14,Weekday,Eastbound,59,SAN LEANDRO ST & 37TH AV,1.670534166,5.823411784,37.77317289,-122.2222411
14,14,Weekday,Eastbound,60,FRUITVALE BART,0.234042553,221.0439204,37.77505204,-122.2248092
14,14,Weekday,Westbound,1,FRUITVALE BART,171.7378205,0.02173913,37.77515044,-122.2249825
14,14,Weekday,Westbound,2,SAN LEANDRO ST & 37TH AV,134.5480108,82.3260052,37.77295446,-122.2222207
14,14,Weekday,Westbound,3,HIGH ST & INTERNATIONAL BLVD,79.55064599,14.91958912,37.77247413,-122.2146142
14,14,Weekday,Westbound,4,HIGH ST & FOOTHILL BLVD,81.42705162,20.50985122,37.77500634,-122.2113041
14,14,Weekday,Westbound,5,HIGH ST & CARRINGTON ST,5.191580034,4.169111083,37.7767091,-122.2096251
14,14,Weekday,Westbound,6,HIGH ST & SAN CARLOS AV,12.77040034,13.01653222,37.7783004,-122.2081256
14,14,Weekday,Westbound,7,HIGH ST & CONGRESS AV,34.01172515,44.87655317,37.78036429,-122.2061987
14,14,Weekday,Westbound,8,HIGH ST & BROOKDALE AV,19.66986128,25.35369362,37.78242433,-122.2042177
14,14,Weekday,Westbound,9,HIGH ST & FLEMING AV,17.6492881,33.3459143,37.7836495,-122.2018684
14,14,Weekday,Westbound,10,HIGH ST & CULVER ST,8.872678842,29.28740214,37.78500136,-122.1992309
14,14,Weekday,Westbound,11,HIGH ST & PORTER ST/MACARTHU,17.97876764,43.87575771,37.78618836,-122.196936
14,14,Weekday,Westbound,12,MACARTHUR BLVD & 39TH AV,43.66033047,60.51594345,37.78957027,-122.1967531
14,14,Weekday,Westbound,13,MACARTHUR BLVD & PATTERSON A,27.09221858,21.68097484,37.79108928,-122.1981242
14,14,Weekday,Westbound,14,35TH AV & REDDING ST,31.38347375,21.61676391,37.7935156,-122.2013287
14,14,Weekday,Westbound,15,35TH AV & SUTER ST,20.98013564,13.27021077,37.79138546,-122.2047355
14,14,Weekday,Westbound,16,SCHOOL ST & LAUREL AV,13.33491301,8.222481588,37.79264372,-122.2076473
14,14,Weekday,Westbound,17,SCHOOL ST & CURRAN AV,20.47846275,16.79951653,37.79366905,-122.209987
14,14,Weekday,Westbound,18,SCHOOL ST & COOLIDGE AV,27.00234367,21.53623821,37.7948973,-122.2127536
14,14,Weekday,Westbound,19,FRUITVALE AV & SCHOOL ST,22.66464884,11.64251488,37.79548366,-122.2181788
14,14,Weekday,Westbound,20,FRUITVALE AV & BROOKDALE AV,16.75479643,7.906689279,37.79289486,-122.2192092
14,14,Weekday,Westbound,21,FRUITVALE AV & LYNDE ST,16.15283333,7.921126365,37.7913275,-122.2198323
14,14,Weekday,Westbound,22,E 27TH ST & FRUITVALE AV,13.52156755,8.681228453,37.7906639,-122.2203755
14,14,Weekday,Westbound,23,E 27TH ST & 26TH AV,20.57790547,11.24809939,37.79136549,-122.2221939
14,14,Weekday,Westbound,24,E 27TH ST & 25TH AV,20.01676253,18.92602761,37.79243841,-122.2242346
14,14,Weekday,Westbound,25,23RD AV & 22ND AV,9.731261654,8.248744212,37.79234346,-122.2276314
14,14,Weekday,Westbound,26,23RD AV & E 24TH ST,12.77370822,5.003296142,37.79089905,-122.2290319
14,14,Weekday,Westbound,27,23RD AV & E 22ND ST,14.37140452,6.556634576,37.78958936,-122.2309267
14,14,Weekday,Westbound,28,23RD AV & E 21ST ST,16.05635994,10.70807347,37.78892472,-122.2315993
14,14,Weekday,Westbound,29,E 21ST ST & 21ST AV,26.65422073,11.09192335,37.79019617,-122.2339236
14,14,Weekday,Westbound,30,E 21ST ST & 19TH AV,32.58937469,13.82761485,37.79146212,-122.2360433
14,14,Weekday,Westbound,31,E 21ST ST & 17TH AV,11.86603785,6.141623958,37.79271342,-122.2381221
14,14,Weekday,Westbound,32,E 18TH ST & 13TH AV,24.18540094,12.00367649,37.79242121,-122.2434103
14,14,Weekday,Westbound,33,E 18TH ST & 12TH AV,19.14197374,3.360576508,37.79320754,-122.2442288
14,14,Weekday,Westbound,34,E 18TH ST & 10TH AV,23.36875912,14.29621398,37.79466511,-122.2458781
14,14,Weekday,Westbound,35,E 18TH ST & 8TH AV,28.50782698,14.95656731,37.79640976,-122.2478574
14,14,Weekday,Westbound,36,E 18TH ST & 6TH AV,15.64325419,7.500940973,37.79756956,-122.2491616
14,14,Weekday,Westbound,37,E 18TH ST & PARK BLVD,29.18362305,33.58808277,37.79933696,-122.2511852
14,14,Weekday,Westbound,38,E 18TH ST & ATHOL AV,50.19624335,23.89020811,37.8003833,-122.2536625
14,14,Weekday,Westbound,39,1ST AV & INTERNATIONAL BLVD,27.79859388,20.6839752,37.79896767,-122.2569348
14,14,Weekday,Westbound,40,14TH ST & OAK ST,17.44509791,27.75621548,37.80123197,-122.2632098
14,14,Weekday,Westbound,41,14TH & JACKSON ST,15.24087726,25.55585367,37.80214571,-122.2655229
14,14,Weekday,Westbound,42,14TH ST & HARRISON ST,14.77307491,52.33799049,37.80287871,-122.2674326
14,14,Weekday,Westbound,43,14TH ST & FRANKLIN ST,22.8019191,100.4446655,37.80379484,-122.2698061
14,14,Weekday,Westbound,44,14TH ST & BROADWAY,82.07995314,125.6080028,37.80466619,-122.2720558
14,14,Weekday,Westbound,45,14TH ST & CLAY ST,18.48299909,24.44835583,37.80545879,-122.2739082
14,14,Weekday,Westbound,46,14TH ST & ML KING JR WAY,13.61465551,15.54965583,37.80618502,-122.2758209
14,14,Weekday,Westbound,47,14TH ST & BRUSH ST,3.359252802,11.03419583,37.80742674,-122.2789643
14,14,Weekday,Westbound,48,14TH ST & MARKET ST,25.02684642,32.81885357,37.80856893,-122.2813488
14,14,Weekday,Westbound,49,14TH ST & FILBERT ST,8.361038755,15.21507083,37.80894286,-122.2827796
14,14,Weekday,Westbound,50,14TH ST & ADELINE ST,14.35973942,31.08719776,37.80960227,-122.2859543
14,14,Weekday,Westbound,51,14TH ST & POPLAR ST,4.538430508,14.38540737,37.81031702,-122.2890556
14,14,Weekday,Westbound,52,14TH ST & MANDELA PKWY,6.080911869,29.73455763,37.81067587,-122.2905966
14,14,Weekday,Westbound,53,14TH ST & PERALTA ST,8.436376153,37.85982075,37.81136794,-122.2937293
14,14,Weekday,Westbound,54,14TH ST & WILLOW ST,8.566761987,33.19622325,37.81266232,-122.2964018
14,14,Weekday,Westbound,55,WOOD ST & 12TH ST,21.78608078,33.25927198,37.81202732,-122.2989207
14,14,Weekday,Westbound,56,WOOD ST & 8TH ST,5.970889932,31.79343168,37.807909,-122.302146
14,14,Weekday,Westbound,57,7TH ST & CAMPBELL ST,3.153790856,22.41410167,37.80632129,-122.2999214
14,14,Weekday,Westbound,58,7TH ST & PERALTA ST,34.3739019,31.68115662,37.80598377,-122.2984325
14,14,Weekday,Westbound,59,WEST OAKLAND BART,0.117005814,93.42229939,37.8053575,-122.2950508
18,18,Weekday,Northbound,1,8TH ST & OAK ST,53.15056706,0.023255814,37.79735423,-122.266407
18,18,Weekday,Northbound,2,8TH ST & JACKSON ST,46.60546351,22.17371689,37.79791725,-122.2678092
18,18,Weekday,Northbound,3,8TH ST & HARRISON ST,40.83273103,13.82094054,37.79904987,-122.2705357
18,18,Weekday,Northbound,4,8TH ST & BROADWAY,19.56676747,7.078308724,37.80016352,-122.273486
18,18,Weekday,Northbound,5,BROADWAY & 9TH ST,27.80646486,4.113129748,37.80116571,-122.2730845
18,18,Weekday,Northbound,6,BROADWAY & 15TH ST,78.72200266,12.16166903,37.80515771,-122.2706593
18,18,Weekday,Northbound,7,BROADWAY & 17TH ST,29.62198314,4.556556177,37.80654207,-122.2697799
18,18,Weekday,Northbound,8,TL BERKLEY WAY,61.26182679,18.03952629,37.80942977,-122.2690301
18,18,Weekday,Northbound,9,TL BERKLEY WAY,21.19474683,15.34920251,37.81024029,-122.2729424
18,18,Weekday,Northbound,10,ML KING JR WAY & 22ND ST,10.764825,11.7891586,37.81162942,-122.2730448
18,18,Weekday,Northbound,11,ML KING JR WAY & W GRAND AV,15.84234373,9.523636716,37.81277033,-122.2726288
18,18,Weekday,Northbound,12,ML KING JR WAY & 25TH ST,7.396553932,8.863123433,37.81516863,-122.2720273
18,18,Weekday,Northbound,13,ML KING JR WAY & 27TH ST,13.16786233,5.773630026,37.81684236,-122.2716157
18,18,Weekday,Northbound,14,ML KING JR WAY & 29TH ST,7.478684371,10.1540895,37.81901635,-122.2710865
18,18,Weekday,Northbound,15,ML KING JR WAY & 31ST ST,13.87652271,10.28480563,37.82047284,-122.2707247
18,18,Weekday,Northbound,16,ML KING JR WAY & 34TH ST,17.74905245,15.77086906,37.8233739,-122.2700126
18,18,Weekday,Northbound,17,ML KING JR WAY & 36TH ST,1.030544284,1.827990005,37.82489684,-122.2695389
18,18,Weekday,Northbound,18,ML KING JR WAY & W MACARTHUR,8.631838684,13.53916264,37.82694065,-122.2690536
18,18,Weekday,Northbound,19,ML KING JR WAY & 40TH ST,46.70319555,26.4366541,37.83011235,-122.2682798
18,18,Weekday,Northbound,20,ML KING JR WAY & 42ND ST,4.642811502,2.676421811,37.83136182,-122.2679423
18,18,Weekday,Northbound,21,ML KING JR WAY & 44TH ST,3.965352541,6.553742781,37.83277745,-122.2675854
18,18,Weekday,Northbound,22,ML KING JR WAY & 47TH ST,4.195549301,4.576269583,37.83499116,-122.2670587
18,18,Weekday,Northbound,23,ML KING JR WAY & 53RD ST,6.918249113,16.26488968,37.8378309,-122.2687059
18,18,Weekday,Northbound,24,55TH ST & ML KING JR WAY,6.673316993,18.3603763,37.83978481,-122.2692344
18,18,Weekday,Northbound,25,55TH ST & DOVER ST,3.184860873,4.498613146,37.83998059,-122.2673587
18,18,Weekday,Northbound,26,SHATTUCK AV & 55TH ST,12.64011223,6.501672421,37.84069811,-122.264478
18,18,Weekday,Northbound,27,SHATTUCK AV & AILEEN ST,7.324357335,4.619655111,37.84189304,-122.2646497
18,18,Weekday,Northbound,28,SHATTUCK AV & 59TH ST,11.16893559,9.000718106,37.84471737,-122.2650385
18,18,Weekday,Northbound,29,SHATTUCK AV & 61ST ST,12.07662039,10.03024242,37.84696287,-122.2653566
18,18,Weekday,Northbound,30,SHATTUCK AV & ALCATRAZ AV,16.30769759,10.61003853,37.84936394,-122.2656872
18,18,Weekday,Northbound,31,SHATTUCK AV & WOOLSEY ST,19.47374877,9.050583523,37.85229686,-122.2660601
18,18,Weekday,Northbound,32,SHATTUCK AV & ASHBY AV,28.48043581,12.35933944,37.85511925,-122.2664417
18,18,Weekday,Northbound,33,SHATTUCK AV & OREGON ST,56.18291899,24.15264889,37.85788387,-122.2667841
18,18,Weekday,Northbound,34,SHATTUCK AV & DERBY ST,14.73947419,5.561450139,37.86027078,-122.266934
18,18,Weekday,Northbound,35,SHATTUCK AV & PARKER ST,20.1379486,11.30316077,37.86207892,-122.2670277
18,18,Weekday,Northbound,36,SHATTUCK AV & DWIGHT WAY,26.61967136,19.64820754,37.86388586,-122.2672442
18,18,Weekday,Northbound,37,SHATTUCK AV & HASTE ST,30.17375378,18.69350497,37.86510516,-122.2673827
18,18,Weekday,Northbound,38,SHATTUCK AV & DURANT AV,42.58966476,45.02942378,37.86657821,-122.2675487
18,18,Weekday,Northbound,39,SHATTUCK AV & ALLSTON WAY,127.8446325,108.0097072,37.87021502,-122.2677986
18,18,Weekday,Northbound,40,SHATTUCK AV & UNIVERSITY AV,95.07245587,49.56908914,37.8724646,-122.2683782
18,18,Weekday,Northbound,41,SHATTUCK AV & DELAWARE ST,25.12461285,21.60539051,37.87520982,-122.2686506
18,18,Weekday,Northbound,42,SHATTUCK AV & VIRGINIA ST,8.203862944,15.28203858,37.87651747,-122.2687766
18,18,Weekday,Northbound,43,SHATTUCK AV & CEDAR ST,11.39889834,46.23544104,37.8783275,-122.2690019
18,18,Weekday,Northbound,44,SHATTUCK AV & VINE ST,18.10901442,79.79019129,37.88011736,-122.2692129
18,18,Weekday,Northbound,45,SHATTUCK PL & ROSE ST,9.350076299,36.47960969,37.88186082,-122.2701305
18,18,Weekday,Northbound,46,HENRY ST & BERRYMAN ST,3.209742045,17.42516426,37.88358085,-122.2708817
18,18,Weekday,Northbound,47,SUTTER ST & HOPKINS ST,4.956699759,21.55976994,37.88838985,-122.2722945
18,18,Weekday,Northbound,48,SOLANO AV & THE ALAMEDA,4.591617855,31.25349105,37.89154801,-122.2774762
18,18,Weekday,Northbound,49,SOLANO AV & COLUSA AV,9.294851969,35.23295964,37.89142884,-122.2796889
18,18,Weekday,Northbound,50,SOLANO AV & ENSENADA AV,2.789007013,13.70187122,37.89132764,-122.2817802
18,18,Weekday,Northbound,51,SOLANO AV & TACOMA AV,1.279948215,10.3082845,37.89119067,-122.2840477
18,18,Weekday,Northbound,52,SOLANO AV & PERALTA AV,3.84918506,31.80779671,37.89108418,-122.2859483
18,18,Weekday,Northbound,53,SOLANO AV & SANTA FE AV,5.080970748,18.63282117,37.8908593,-122.2891703
18,18,Weekday,Northbound,54,SOLANO AV & RAMONA AV,2.02036119,13.22098126,37.89074729,-122.291321
18,18,Weekday,Northbound,55,SOLANO AV & MASONIC AV,3.883809168,16.38464998,37.89068242,-122.2934574
18,18,Weekday,Northbound,56,SOLANO AV & CORNELL AV,2.181181176,24.87845604,37.89050606,-122.2960488
18,18,Weekday,Northbound,57,SOLANO AV & KAINS AV,1.665036682,69.47087326,37.8903397,-122.298276
18,18,Weekday,Northbound,58,SAN PABLO AV & BUCHANAN ST,0.676974338,13.72477678,37.88810686,-122.2983955
18,18,Weekday,Northbound,59,SAN PABLO AV & MARIN AV,0.399852136,9.294117375,37.88645325,-122.2978732
18,18,Weekday,Northbound,60,MONROE AV & JACKSON ST,0,66.5421975,37.88457951,-122.2996021
18,18,Weekday,Southbound,1,MONROE AV & JACKSON ST,45.2166831,2.544742677,37.88452038,-122.2994503
18,18,Weekday,Southbound,2,JACKSON ST & OHLONE AV,35.18575167,15.12831077,37.88658919,-122.2987304
18,18,Weekday,Southbound,3,956 OHLONE AV,8.259421457,3.649119643,37.88552754,-122.3013245
18,18,Weekday,Southbound,4,JACKSON ST & 8TH ST,22.47524699,6.996953601,37.88338604,-122.2999198
18,18,Weekday,Southbound,5,SAN PABLO AV & MARIN AV,0,0,37.88746,-122.29798
18,18,Weekday,Southbound,6,SAN PABLO AV & BUCHANAN ST,0.443137255,0.325490196,37.88887503,-122.2981084
18,18,Weekday,Southbound,7,SOLANO AV & KAINS AV,77.30971194,3.521850212,37.89029613,-122.2981993
18,18,Weekday,Southbound,8,SOLANO AV & CORNELL AV,29.59127299,2.837671367,37.89039941,-122.2958925
18,18,Weekday,Southbound,9,SOLANO AV & MASONIC AV,22.54884645,5.124693175,37.89051176,-122.2932943
18,18,Weekday,Southbound,10,SOLANO AV & RAMONA AV,17.49928375,2.652750183,37.89065332,-122.2909311
18,18,Weekday,Southbound,11,SOLANO AV & SANTA FE AV,14.09946962,2.289060598,37.8907583,-122.288934
18,18,Weekday,Southbound,12,SOLANO AV & CURTIS ST,21.38266972,7.639057502,37.89087782,-122.2871659
18,18,Weekday,Southbound,13,SOLANO AV & PERALTA AV,19.41325737,3.424525034,37.89097076,-122.285268
18,18,Weekday,Southbound,14,SOLANO AV & VENTURA AV,6.150688602,1.373742554,37.89108279,-122.2831736
18,18,Weekday,Southbound,14,SOLANO AV & ENSENADA AV,12.48372187,3.008936653,37.89117838,-122.2815451
18,18,Weekday,Southbound,16,SOLANO AV & COLUSA AV,44.24858917,14.65498637,37.89133682,-122.278791
18,18,Weekday,Southbound,17,SOLANO AV & THE ALAMEDA,12.11475516,2.298337905,37.89110752,-122.2762408
18,18,Weekday,Southbound,18,SUTTER ST & HOPKINS ST,20.17760265,5.107119028,37.88859093,-122.2725079
18,18,Weekday,Southbound,19,SUTTER ST & YOLO AV,7.252464911,1.217011317,37.88625088,-122.2719
18,18,Weekday,Southbound,20,HENRY ST & BERRYMAN ST,11.98065902,4.313395297,37.88340827,-122.2711065
18,18,Weekday,Southbound,21,SHATTUCK PL & ROSE ST,35.29750711,14.09540565,37.88172295,-122.2703711
18,18,Weekday,Southbound,22,SHATTUCK AV & VINE ST,72.42570948,13.10375529,37.8803488,-122.2694454
18,18,Weekday,Southbound,23,SHATTUCK AV & CEDAR ST,45.18211599,9.179814529,37.87856359,-122.269234
18,18,Weekday,Southbound,24,SHATTUCK AV & VIRGINIA ST,17.66971506,7.442265036,37.87636015,-122.2689967
18,18,Weekday,Southbound,25,SHATTUCK AV & DELAWARE ST,22.27983021,24.70405577,37.87458153,-122.2688223
18,18,Weekday,Southbound,26,SHATTUCK AV & UNIVERSITY AV,34.98464881,64.3783483,37.87237675,-122.2685194
18,18,Weekday,Southbound,27,SHATTUCK AV & ALLSTON WAY,120.0045956,131.032058,37.86954851,-122.2680726
18,18,Weekday,Southbound,28,SHATTUCK AV & KITTREDGE ST,31.41480208,40.13500087,37.86821798,-122.2679854
18,18,Weekday,Southbound,29,SHATTUCK AV & DURANT AV,27.93021944,29.21991573,37.86649755,-122.2677975
18,18,Weekday,Southbound,30,SHATTUCK AV & DWIGHT WAY,27.71096486,40.1160702,37.86379092,-122.2674836
18,18,Weekday,Southbound,31,SHATTUCK AV & PARKER ST,14.36466899,19.59573799,37.86193725,-122.2672782
18,18,Weekday,Southbound,32,SHATTUCK AV & DERBY ST,5.23789442,14.20120872,37.86068021,-122.2671656
18,18,Weekday,Southbound,33,SHATTUCK AV & OREGON ST,30.5242713,54.61104961,37.85725777,-122.2668413
18,18,Weekday,Southbound,34,SHATTUCK AV & ASHBY AV,9.380749045,28.08245944,37.855451,-122.2666137
18,18,Weekday,Southbound,35,SHATTUCK AV & WOOLSEY ST,8.782024351,24.08793768,37.85247434,-122.266219
18,18,Weekday,Southbound,36,SHATTUCK AV & ALCATRAZ AV,12.34592422,23.29304413,37.84966109,-122.2658378
18,18,Weekday,Southbound,37,SHATTUCK AV & 61ST ST,11.14292145,10.93601809,37.84668607,-122.2654559
18,18,Weekday,Southbound,38,SHATTUCK AV & 59TH ST,8.953975664,11.46031299,37.84419511,-122.2651317
18,18,Weekday,Southbound,39,SHATTUCK AV & AILEEN ST,3.990293995,6.023623755,37.84212384,-122.2648506
18,18,Weekday,Southbound,40,55TH ST & SHATTUCK AV,6.455322034,11.80395867,37.84049259,-122.2649333
18,18,Weekday,Southbound,41,55TH ST & DOVER ST,7.529381262,4.338634082,37.84020989,-122.2671327
18,18,Weekday,Southbound,42,ML KING JR WAY & 55TH ST,18.98801998,8.076651428,37.8394153,-122.2698255
18,18,Weekday,Southbound,43,ML KING JR WAY & 52ND ST,12.77481988,6.527988649,37.8373202,-122.2688787
18,18,Weekday,Southbound,44,ML KING JR WAY & 47TH ST,3.167875951,6.054746656,37.83479221,-122.2672951
18,18,Weekday,Southbound,45,ML KING JR WAY & 44TH ST,5.342808056,5.18651069,37.83273342,-122.267797
18,18,Weekday,Southbound,46,ML KING JR WAY & 42ND ST,3.759340994,4.590204661,37.8316288,-122.268068
18,18,Weekday,Southbound,47,ML KING JR WAY & 40TH ST,31.39835344,51.23063874,37.82951124,-122.2685919
18,18,Weekday,Southbound,48,ML KING JR WAY & W MACARTHUR,15.39938506,9.690180811,37.82692683,-122.2692484
18,18,Weekday,Southbound,49,ML KING JR WAY & 36TH ST,0.657405275,1.809856214,37.82499174,-122.2697547
18,18,Weekday,Southbound,50,ML KING JR WAY & 34TH ST,13.90220912,17.36803155,37.82339596,-122.2701554
18,18,Weekday,Southbound,51,ML KING JR WAY & 31ST ST,10.29236616,12.60013174,37.82072032,-122.2708321
18,18,Weekday,Southbound,52,ML KING JR WAY & 29TH ST,5.875770788,8.100128727,37.81884093,-122.2713025
18,18,Weekday,Southbound,53,ML KING JR WAY & 27TH ST,7.725254737,11.77006312,37.81732856,-122.2716863
18,18,Weekday,Southbound,54,ML KING JR WAY & 25TH ST,7.664346659,13.35513659,37.81516243,-122.2722292
18,18,Weekday,Southbound,55,ML KING JR WAY & W GRAND AV,18.85530151,21.66290636,37.81224024,-122.2729789
18,18,Weekday,Southbound,56,TL BERKLEY WAY,16.58109626,26.31874834,37.81001968,-122.2726875
18,18,Weekday,Southbound,57,TL BERKLEY WAY,20.57877083,60.75423746,37.80919321,-122.2687883
18,18,Weekday,Southbound,58,BROADWAY & 17TH ST,5.890474192,31.45057458,37.80635446,-122.2700632
18,18,Weekday,Southbound,59,BROADWAY & 12TH ST,10.74440381,83.35237968,37.80312444,-122.272044
18,18,Weekday,Southbound,60,BROADWAY & 9TH ST,3.366086795,38.52746243,37.80123466,-122.2732708
18,18,Weekday,Southbound,61,7TH ST & FRANKLIN ST,3.239512993,17.00185079,37.79903662,-122.2731617
18,18,Weekday,Southbound,62,7TH ST & HARRISON ST,0.54184737,5.32945952,37.79809992,-122.270827
18,18,Weekday,Southbound,63,7TH ST & JACKSON ST,7.237922899,11.09390953,37.79703666,-122.2679879
18,18,Weekday,Southbound,64,8TH ST & OAK ST,0.125,76.48751794,37.79730779,-122.266255
19,19,Weekday,Eastbound,1,11TH ST & JEFFERSON ST,11.29994566,0.171428571,37.8034717,-122.2757821
19,19,Weekday,Eastbound,2,11TH ST & CLAY ST,2.362001515,1.640231173,37.80290724,-122.2744492
19,19,Weekday,Eastbound,3,11TH ST & BROADWAY,14.36603491,1.957848204,37.80225868,-122.2728604
19,19,Weekday,Eastbound,4,BROADWAY & 9TH ST,11.87020577,1.451479703,37.80119122,-122.2732932
19,19,Weekday,Eastbound,5,7TH ST & FRANKLIN ST,11.87596491,0.407894737,37.79903421,-122.2732267
19,19,Weekday,Eastbound,6,MARINER SQ LOOP & WILLIE STA,2.406067966,3.887863887,37.78508146,-122.2781574
19,19,Weekday,Eastbound,7,MARINA VILLAGE PKWY & MARINE,3.329305574,2.32114768,37.78821831,-122.277517
19,19,Weekday,Eastbound,8,MARINA VILLAGE PKWY & MARINE,0.257894737,0.202631579,37.78769842,-122.2762142
19,19,Weekday,Eastbound,9,1201 MARINA VILLAGE PKWY,1.309473684,1.316842105,37.78606637,-122.2735179
19,19,Weekday,Eastbound,10,947 MARINA VILLAGE PKWY,1.219473684,2.039267735,37.78477474,-122.2716256
19,19,Weekday,Eastbound,11,CHALLENGER DR & MARINA VILLA,3.463272311,2.372631579,37.78235684,-122.2717355
19,19,Weekday,Eastbound,12,ATLANTIC AV & CHALLENGER DR,1.766842105,0.925697941,37.78109323,-122.2700735
19,19,Weekday,Eastbound,13,ATLANTIC AV & TRIUMPH DR,1.984439359,1.032745995,37.78059022,-122.2655945
19,19,Weekday,Eastbound,14,BUENA VISTA AV & SHERMAN ST,4.795,4.738333333,37.7767581,-122.2627677
19,19,Weekday,Eastbound,15,BUENA VISTA AV & STANTON ST,2.989649123,2.584473684,37.77594262,-122.2576598
19,19,Weekday,Eastbound,16,BUENA VISTA AV & GRAND ST,1.18245614,2.059473684,37.77429635,-122.2538371
19,19,Weekday,Eastbound,17,BUENA VISTA AV & CHESTNUT ST,0.954824561,1.876929825,37.77248476,-122.2496719
19,19,Weekday,Eastbound,18,BUENA VISTA AV & WILLOW ST,4.684473684,2.653245614,37.7714097,-122.2471978
19,19,Weekday,Eastbound,19,BUENA VISTA AV & WALNUT ST,1.244912281,2.437017544,37.77001226,-122.2439266
19,19,Weekday,Eastbound,20,BUENA VISTA AV & PARK ST,1.48122807,4.929649123,37.76819702,-122.239744
19,19,Weekday,Eastbound,21,BLANDING AV & BROADWAY,3.071754386,2.308157895,37.76860949,-122.2337587
19,19,Weekday,Eastbound,22,FRUITVALE AV & E 9TH ST,0.638596491,1.113859649,37.77310212,-122.2279912
19,19,Weekday,Eastbound,23,FRUITVALE BART,18.87412281,15.21412281,37.7751063,-122.2249204
19,19,Weekday,Eastbound,24,SEMINARY AV & DIV 4 GATE,0,48.07692982,37.76088884,-122.2043667
19,19,Weekday,Westbound,1,SEMINARY AV & DIV 4 GATE,55.93249428,0,37.76111931,-122.2042061
19,19,Weekday,Westbound,2,FRUITVALE BART,18.01947368,35.87692982,37.77501722,-122.2246986
19,19,Weekday,Westbound,3,FRUITVALE AV & E 9TH ST,1.168947368,1.614210526,37.77381022,-122.2278365
19,19,Weekday,Westbound,4,BROADWAY & BLANDING AV,2.546967419,2.560776942,37.76858962,-122.2341774
19,19,Weekday,Westbound,5,BROADWAY & TILDEN WAY,0.460555556,0.430555556,37.76748042,-122.2351781
19,19,Weekday,Westbound,6,BUENA VISTA AV & PARK ST,4.76248538,3.463859649,37.76844328,-122.2401038
19,19,Weekday,Westbound,7,BUENA VISTA AV & WALNUT ST,3.179473684,1.199824561,37.77030257,-122.2444025
19,19,Weekday,Westbound,8,BUENA VISTA AV & WILLOW ST,4.677017544,3.793684211,37.77152268,-122.2471919
19,19,Weekday,Westbound,9,BUENA VISTA AV & CHESTNUT ST,1.746608187,0.752631579,37.77278867,-122.2501125
19,19,Weekday,Westbound,10,BUENA VISTA AV & GRAND ST,4.073830409,1.283859649,37.77424169,-122.2534651
19,19,Weekday,Westbound,11,BUENA VISTA AV & STANTON ST,2.890380117,1.373450292,37.77619445,-122.2580559
19,19,Weekday,Westbound,12,SHERMAN ST & BUENA VISTA AV,5.896491228,4.044210526,37.77732964,-122.2630698
19,19,Weekday,Westbound,13,ATLANTIC AV & #1105,0.570964912,0.544298246,37.78023355,-122.2640149
19,19,Weekday,Westbound,14,ATLANTIC AV & TRIUMPH DR,2.632631579,2.721754386,37.78079184,-122.266113
19,19,Weekday,Westbound,15,CHALLENGER DR & ATLANTIC AV,0.456666667,1.605350877,37.78147661,-122.270781
19,19,Weekday,Westbound,16,MARINA VILLAGE PKWY & CHALLE,2.106081871,3.127894737,37.78275034,-122.271385
19,19,Weekday,Westbound,17,1080 MARINA VILLAGE PKWY,1.258040936,0.665964912,37.78499632,-122.2714871
19,19,Weekday,Westbound,18,1250 MARINA VILLAGE PKWY,0.675789474,0.941783626,37.7871574,-122.2747301
19,19,Weekday,Westbound,19,MARINA VILLAGE PKWY & MARINE,0.820526316,2.181608187,37.78800928,-122.2757342
19,19,Weekday,Westbound,20,HARRISON ST & 8TH ST,1.747017544,12.00561404,37.79903124,-122.2699531
19,19,Weekday,Westbound,21,12TH ST & HARRISON ST,0.291666667,0.668421053,37.80172231,-122.26886
19,19,Weekday,Westbound,22,12TH ST & BROADWAY,2.04745614,19.69122807,37.80308462,-122.272398
19,19,Weekday,Westbound,23,12TH & CLAY ST,0.707894737,3.234649123,37.80412972,-122.2748787
19,19,Weekday,Westbound,24,11TH ST & JEFFERSON ST,0,12.89885202,37.80337915,-122.2755814
20,20,Weekday,Eastbound,1,ML KING JR WAY & 11TH ST,21.85700207,0.427818564,37.80356193,-122.2763124
20,20,Weekday,Eastbound,2,11TH ST & CLAY ST,10.73851024,4.314267097,37.80284815,-122.2743943
20,20,Weekday,Eastbound,3,11TH ST & BROADWAY,47.48981955,8.291092382,37.80224404,-122.2727858
20,20,Weekday,Eastbound,4,BROADWAY & 9TH ST,45.80585366,2.006395121,37.80120739,-122.2732672
20,20,Weekday,Eastbound,5,7TH ST & FRANKLIN ST,55.23482209,3.942618329,37.79901625,-122.2731772
20,20,Weekday,Eastbound,6,WEBSTER ST & WILLIE STARGELL,12.53481307,8.743500979,37.78284349,-122.2767633
20,20,Weekday,Eastbound,7,WEBSTER ST & RALPH APPEZZATO,16.60690178,14.67416923,37.77913188,-122.2766792
20,20,Weekday,Eastbound,8,WEBSTER ST & BUENA VISTA AV,29.24566403,15.78015803,37.77694916,-122.2767296
20,20,Weekday,Eastbound,9,WEBSTER ST & LINCOLN AV,19.30442575,8.227839026,37.77485814,-122.2767827
20,20,Weekday,Eastbound,10,WEBSTER ST & SANTA CLARA AV,21.21791392,10.17525118,37.77307654,-122.2768578
20,20,Weekday,Eastbound,11,CENTRAL AV & WEBSTER ST,14.00448137,7.646442367,37.77134571,-122.2763905
20,20,Weekday,Eastbound,12,CENTRAL AV & 8TH ST,6.2725248,4.100416606,37.771223,-122.2732469
20,20,Weekday,Eastbound,13,8TH ST & PORTOLA AV,3.767252087,2.597024915,37.76884033,-122.2729851
20,20,Weekday,Eastbound,14,OTIS DR & WESTLINE DR,10.77458564,9.607371779,37.76607365,-122.2711041
20,20,Weekday,Eastbound,15,OTIS DR & LARCHMONT ISLE,2.761687374,7.328397709,37.7646466,-122.2667342
20,20,Weekday,Eastbound,16,GRAND ST & OTIS DR,2.548601638,4.131712987,37.76259719,-122.2623985
20,20,Weekday,Eastbound,17,GRAND ST & #433,6.688179625,10.56540937,37.76162794,-122.2629714
20,20,Weekday,Eastbound,18,SHORELINE DR & GRAND ST,5.541537438,4.665009972,37.75929662,-122.2637717
20,20,Weekday,Eastbound,19,SHORELINE DR & KITTY HAWK RD,11.33476484,9.123299408,37.75818124,-122.2607114
20,20,Weekday,Eastbound,20,WILLOW ST & SHORELINE DR,3.812175492,6.917291339,37.75707181,-122.2564228
20,20,Weekday,Eastbound,21,WILLOW ST & FRANCISCAN WAY,5.886101664,6.880135043,37.75826521,-122.2557393
20,20,Weekday,Eastbound,22,WHITEHALL PL & WILLOW ST,4.466449821,12.62206886,37.75941677,-122.2547493
20,20,Weekday,Eastbound,23,ALAMEDA SOUTH SHORE CENTER &,42.34380401,57.56677308,37.75879645,-122.2530919
20,20,Weekday,Eastbound,24,ALAMEDA SOUTH SHORE CENTER A,71.28587643,28.79092475,37.7570007,-122.2494453
20,20,Weekday,Eastbound,25,PARK ST & OTIS DR,37.72723206,9.541230641,37.75777438,-122.2481724
20,20,Weekday,Eastbound,26,PARK ST & SAN JOSE AV,7.389374961,10.80817663,37.76073761,-122.2457407
20,20,Weekday,Eastbound,27,PARK ST & ENCINAL AV,13.35459472,22.22373155,37.76280663,-122.2439356
20,20,Weekday,Eastbound,28,PARK ST & SANTA CLARA AV,25.55906711,43.83582073,37.76554697,-122.2416505
20,20,Weekday,Eastbound,29,PARK ST & BUENA VISTA AV,10.85870108,10.96592503,37.76830764,-122.2392854
20,20,Weekday,Eastbound,30,PARK ST & CLEMENT AV,3.319918825,3.776477265,37.76962039,-122.2381744
20,20,Weekday,Eastbound,31,PARK ST & BLANDING AV,8.172851553,4.695119247,37.77044998,-122.2374664
20,20,Weekday,Eastbound,32,29TH AV & GLASCOCK ST,3.101896325,3.351314581,37.77267556,-122.2353673
20,20,Weekday,Eastbound,33,29TH AV & E 10TH ST,8.411337127,7.632876,37.7766816,-122.2314956
20,20,Weekday,Eastbound,34,E 12TH ST & 29TH AV,1.859214422,15.74860174,37.77788214,-122.2300427
20,20,Weekday,Eastbound,35,FRUITVALE BART,109.0128681,144.4954104,37.77520957,-122.2249976
20,20,Weekday,Eastbound,36,FRUITVALE AV & INTERNATIONAL,42.56540648,13.83109783,37.77786103,-122.2256498
20,20,Weekday,Eastbound,37,FRUITVALE AV & E 16TH ST,7.614899397,8.422094908,37.78057357,-122.2242836
20,20,Weekday,Eastbound,38,FRUITVALE AV & E 18TH ST,3.956298487,5.545699341,37.78220584,-122.2234587
20,20,Weekday,Eastbound,39,FRUITVALE AV & FOOTHILL BLVD,34.8927783,52.94395735,37.78394606,-122.2226357
20,20,Weekday,Eastbound,40,FRUITVALE AV & E 23RD ST,5.233409535,19.57296012,37.78532433,-122.2220877
20,20,Weekday,Eastbound,41,FRUITVALE AV & LOGAN ST,4.604425631,16.80092546,37.78784837,-122.2210601
20,20,Weekday,Eastbound,42,FRUITVALE AV & BLOSSOM ST,4.214152667,25.64201934,37.78959848,-122.2203759
20,20,Weekday,Eastbound,43,FRUITVALE AV & LYNDE ST,6.186316268,28.13205691,37.7913825,-122.2196616
20,20,Weekday,Eastbound,44,FRUITVALE AV & BROOKDALE AV,3.829177867,23.88284926,37.79344218,-122.2188385
20,20,Weekday,Eastbound,45,FRUITVALE AV & SCHOOL ST,2.037006753,20.20394263,37.79560873,-122.2179724
20,20,Weekday,Eastbound,46,FRUITVALE AV & PLEASANT ST,7.03463615,14.55724872,37.79707882,-122.2173788
20,20,Weekday,Eastbound,47,FRUITVALE AV & MACARTHUR BLV,0.105263158,59.10499607,37.79933913,-122.2166045
20,20,Weekday,Westbound,1,FRUITVALE AV & MACARTHUR BLV,62.4341077,1.626007739,37.79972969,-122.2164652
20,20,Weekday,Westbound,2,FRUITVALE AV & MONTANA ST,15.56393843,6.250575551,37.79846923,-122.2169704
20,20,Weekday,Westbound,3,FRUITVALE AV & CASTELLO ST,55.14631383,4.724485004,37.79702455,-122.2174984
20,20,Weekday,Westbound,4,FRUITVALE AV & SCHOOL ST,20.55895043,2.638136978,37.79547374,-122.2181791
20,20,Weekday,Westbound,5,FRUITVALE AV & BROOKDALE AV,22.3438707,4.710207616,37.79289194,-122.2192047
20,20,Weekday,Westbound,6,FRUITVALE AV & LYNDE ST,14.77836521,7.522930806,37.79131438,-122.2198285
20,20,Weekday,Westbound,7,FRUITVALE AV & BLOSSOM ST,24.99785358,3.817504809,37.78953297,-122.2205358
20,20,Weekday,Westbound,8,FRUITVALE AV & LOGAN ST,9.794661276,3.687134546,37.78784467,-122.2212149
20,20,Weekday,Westbound,9,FRUITVALE AV & E 23RD ST,11.51145624,5.250981739,37.78574514,-122.2220453
20,20,Weekday,Westbound,10,FRUITVALE AV & FOOTHILL BLVD,41.28568809,31.09869999,37.7835558,-122.2229481
20,20,Weekday,Westbound,11,FRUITVALE AV & E 18TH ST,2.022784962,2.706816722,37.78165636,-122.2239058
20,20,Weekday,Westbound,12,FRUITVALE AV & E 16TH ST,7.154218856,7.778013295,37.78042458,-122.2245375
20,20,Weekday,Westbound,13,FRUITVALE AV & INTERNATIONAL,7.96526968,38.32703815,37.77737405,-122.2261166
20,20,Weekday,Westbound,14,NO STOP FRUITVALE AV & SAN L,2.940698894,1.197679664,37.77572522,-122.226374
20,20,Weekday,Westbound,15,FRUITVALE BART,125.9065722,84.61959992,37.77502096,-122.2247041
20,20,Weekday,Westbound,16,E 12TH ST & FRUITVALE AV,6.554989422,1.328836083,37.7762561,-122.2268749
20,20,Weekday,Westbound,17,29TH AV & RAILROAD CROSSING,15.91684146,8.261928212,37.77733927,-122.2308604
20,20,Weekday,Westbound,18,23RD AV & 29TH AV,3.357803621,4.182230176,37.77287438,-122.2358389
20,20,Weekday,Westbound,19,PARK ST & CLEMENT AV,7.146365109,13.00231661,37.76961461,-122.2384041
20,20,Weekday,Westbound,20,PARK ST & BUENA VISTA AV,5.896001912,10.69288835,37.76795748,-122.2398201
20,20,Weekday,Westbound,21,PARK ST & SANTA CLARA AV,38.85403761,29.39469543,37.76514812,-122.2421216
20,20,Weekday,Westbound,22,PARK ST & ENCINAL AV,14.22591364,14.4513344,37.76225162,-122.244577
20,20,Weekday,Westbound,23,PARK ST & SAN JOSE AV,9.388190765,7.399065759,37.76078125,-122.2458319
20,20,Weekday,Westbound,24,PARK ST & OTIS DR,7.263045133,35.45835496,37.75736594,-122.2487394
20,20,Weekday,Westbound,25,ALAMEDA SOUTH SHORE CENTER A,47.55546906,46.95683263,37.75721265,-122.2496242
20,20,Weekday,Westbound,26,ALAMEDA SOUTH SHORE CENTER &,58.50871146,41.56363699,37.75868098,-122.2527953
20,20,Weekday,Westbound,27,WHITEHALL PL & WILLOW ST,8.648828683,8.185070755,37.75951858,-122.2548402
20,20,Weekday,Westbound,28,WILLOW ST & FRANCISCAN WAY,5.42200379,3.75013996,37.75835668,-122.2558856
20,20,Weekday,Westbound,29,WILLOW ST & SHORELINE DR,8.243033536,3.599399856,37.75705534,-122.2566703
20,20,Weekday,Westbound,30,SHORELINE DR & #2019,0.890614274,0.825452727,37.75742195,-122.2583736
20,20,Weekday,Westbound,31,SHORELINE DR & KITTY HAWK RD,11.43878804,10.51754445,37.75851154,-122.2612753
20,20,Weekday,Westbound,32,GRAND ST & SHORELINE DR,6.083294017,7.043704174,37.75974977,-122.2638672
20,20,Weekday,Westbound,33,GRAND ST & #433,16.56463195,4.690905488,37.76171567,-122.2627239
20,20,Weekday,Westbound,34,OTIS DR & GRAND ST,4.522967776,2.538072413,37.76332408,-122.2626208
20,20,Weekday,Westbound,35,OTIS DR & LARCHMONT ISLE,6.614338958,3.838671089,37.76521077,-122.2676882
20,20,Weekday,Westbound,36,WESTLINE DR & OTIS DR,10.65304683,7.75670631,37.7665168,-122.271505
20,20,Weekday,Westbound,37,8TH ST & PORTOLA AV,2.197027496,2.729023524,37.76898708,-122.2728029
20,20,Weekday,Westbound,38,CENTRAL AV & 8TH ST,2.777006054,7.340826379,37.77142606,-122.2732396
20,20,Weekday,Westbound,39,WEBSTER ST & CENTRAL AV,8.416582599,24.52104835,37.77170995,-122.2768355
20,20,Weekday,Westbound,40,WEBSTER ST & SANTA CLARA AV,17.29896163,19.82410266,37.77358557,-122.2767318
20,20,Weekday,Westbound,41,WEBSTER ST & LINCOLN AV,8.473616805,19.75147323,37.7754771,-122.2766573
20,20,Weekday,Westbound,42,WEBSTER ST & BUENA VISTA AV,20.28083502,25.75490407,37.77763725,-122.2765603
20,20,Weekday,Westbound,43,WEBSTER ST & ATLANTIC AV,14.70759197,12.06106329,37.78017863,-122.276386
20,20,Weekday,Westbound,44,WEBSTER ST & WILLIE STARGELL,13.67309424,10.0150994,37.78317022,-122.2764068
20,20,Weekday,Westbound,45,HARRISON ST & 8TH ST,3.871800674,65.50735164,37.79904165,-122.2699462
20,20,Weekday,Westbound,46,12TH ST & HARRISON ST,0,1.977444629,37.80170611,-122.2688158
20,20,Weekday,Westbound,47,12TH ST & BROADWAY,4.034978933,117.361161,37.80308192,-122.2724195
20,20,Weekday,Westbound,48,12TH ST & CLAY ST,6.098109646,8.473557935,37.80410567,-122.2748669
20,20,Weekday,Westbound,49,ML KING JR WAY & 11TH ST,0.102564103,26.02689652,37.8036636,-122.2762759
21,21,Weekday,Eastbound,1,OAKLAND INTERNATIONAL AIRPOR,56.37092501,0.287088125,37.71280576,-122.2117982
21,21,Weekday,Eastbound,2,MAITLAND DR & HARBOR BAY PKW,19.25186518,4.389658958,37.72931888,-122.2296473
21,21,Weekday,Eastbound,3,MAITLAND DR & FITCHBURG AV,7.017418534,1.3906807,37.73098408,-122.2317063
21,21,Weekday,Eastbound,4,MECARTNEY RD & MELROSE AV,10.37015379,1.81506012,37.73406671,-122.2346528
21,21,Weekday,Eastbound,5,MECARTNEY RD & CAMELLIA DR,4.33204923,0.352064434,37.73517607,-122.2371079
21,21,Weekday,Eastbound,6,MECARTNEY RD & ISLAND DR,5.203877986,0.968333587,37.73570567,-122.2394069
21,21,Weekday,Eastbound,7,MECARTNEY RD & AUBURN DR,16.08422079,1.814938361,37.73616864,-122.2413803
21,21,Weekday,Eastbound,8,MECARTNEY RD & IRONWOOD RD,17.08687776,1.333737485,37.73706509,-122.2451648
21,21,Weekday,Eastbound,9,MECARTNEY RD & BAYWALK RD,6.790678798,0.807651988,37.73756347,-122.2490505
21,21,Weekday,Eastbound,10,MECARTNEY RD & AUGHINBAUGH W,17.49992451,5.058142593,37.73908628,-122.2516486
21,21,Weekday,Eastbound,11,MECARTNEY RD & SHARON RD,0,0.025641026,37.73799006,-122.2545803
21,21,Weekday,Eastbound,12,HARBOR BAY PKWY & FERRY TERM,3.245454545,1.827922078,37.73691069,-122.2566972
21,21,Weekday,Eastbound,13,MECARTNEY RD & SHARON RD,0.025,0,37.73790237,-122.2543691
21,21,Weekday,Eastbound,14,AUGHINBAUGH WAY & MECARTNEY,1.050552826,0.054054054,37.73849006,-122.2520001
21,21,Weekday,Eastbound,15,AUGHINBAUGH WAY & THE LAGOON,0.120454545,0,37.74051391,-122.2511924
21,21,Weekday,Eastbound,16,AUGHINBAUGH WAY & KOFMAN PKW,4.80241271,0.484402414,37.74171863,-122.2501325
21,21,Weekday,Eastbound,17,AUGHINBAUGH WAY & ROBERT DAV,7.973423609,2.645930347,37.74285945,-122.2498604
21,21,Weekday,Eastbound,18,ROBERT DAVEY JR DR & CHANNIN,6.723081413,0.670379041,37.74282751,-122.2474684
21,21,Weekday,Eastbound,19,ROBERT DAVEY JR DR & OYSTER,2.031687577,1.666979245,37.74244217,-122.2451098
21,21,Weekday,Eastbound,20,ROBERT DAVEY JR DR & PUDDING,7.990373688,0.522097108,37.74423909,-122.2427236
21,21,Weekday,Eastbound,21,ROBERT DAVEY JR DR & PACKET,5.957949584,0.611761806,37.74363753,-122.2391707
21,21,Weekday,Eastbound,22,ISLAND DR & BAYFARM PARK & R,1.859702302,0.183430414,37.74546221,-122.2364195
21,21,Weekday,Eastbound,23,OTIS DR & HIGH ST,2.929621623,1.214212044,37.75187847,-122.2387874
21,21,Weekday,Eastbound,24,OTIS DR & MOUND ST,1.717844025,0.527852135,37.75327077,-122.2407887
21,21,Weekday,Eastbound,25,OTIS DR & BROADWAY,1.429362705,1.007045242,37.75577459,-122.2450692
21,21,Weekday,Eastbound,26,PARK ST & OTIS DR,41.54840489,17.86150999,37.75778027,-122.2482035
21,21,Weekday,Eastbound,27,PARK ST & SAN JOSE AV,6.769517451,4.70333494,37.76078223,-122.2456284
21,21,Weekday,Eastbound,28,PARK ST & ENCINAL AV,12.47291089,37.92428242,37.76280995,-122.2439374
21,21,Weekday,Eastbound,29,PARK ST & SANTA CLARA AV,19.66322497,49.86361271,37.76553156,-122.2416679
21,21,Weekday,Eastbound,30,PARK ST & BUENA VISTA AV,8.595409999,6.787278018,37.76830785,-122.2392876
21,21,Weekday,Eastbound,31,PARK ST & CLEMENT AV,2.453177511,1.931333504,37.76962713,-122.2381752
21,21,Weekday,Eastbound,32,PARK ST & BLANDING AV,6.109493374,2.157804199,37.77044296,-122.2374816
21,21,Weekday,Eastbound,33,29TH AV & GLASCOCK ST,2.351563768,1.046968971,37.77268137,-122.2353811
21,21,Weekday,Eastbound,34,29TH AV & E 10TH ST,9.49570937,3.074418576,37.77669587,-122.2314974
21,21,Weekday,Eastbound,35,E 12TH ST & 29TH AV,1.166108009,9.59352282,37.77789021,-122.2300578
21,21,Weekday,Eastbound,36,FRUITVALE BART,95.97786278,101.20441,37.77524179,-122.2250422
21,21,Weekday,Eastbound,37,FRUITVALE AV & INTERNATIONAL,47.20962819,7.394214063,37.77785859,-122.2256622
21,21,Weekday,Eastbound,38,FRUITVALE AV & E 16TH ST,10.32798693,4.97902184,37.78056465,-122.2242882
21,21,Weekday,Eastbound,39,FRUITVALE AV & E 18TH ST,2.48994991,3.622887645,37.7822041,-122.2234599
21,21,Weekday,Eastbound,40,FRUITVALE AV & FOOTHILL BLVD,36.19063586,37.69418069,37.78394507,-122.2226384
21,21,Weekday,Eastbound,41,FRUITVALE AV & E 23RD ST,5.09408648,13.65082932,37.78532152,-122.2220895
21,21,Weekday,Eastbound,42,FRUITVALE AV & LOGAN ST,4.098149131,12.06131751,37.78784669,-122.2210608
21,21,Weekday,Eastbound,43,FRUITVALE AV & BLOSSOM ST,4.167467986,20.05602046,37.78959314,-122.2203799
21,21,Weekday,Eastbound,44,FRUITVALE AV & LYNDE ST,6.008340195,23.00818423,37.79138409,-122.2196613
21,21,Weekday,Eastbound,45,FRUITVALE AV & BROOKDALE AV,4.855380213,20.41328895,37.7934354,-122.2188418
21,21,Weekday,Eastbound,46,FRUITVALE AV & SCHOOL ST,2.259528005,17.04891965,37.79560347,-122.2179772
21,21,Weekday,Eastbound,47,FRUITVALE AV & PLEASANT ST,10.78085305,15.04787266,37.79705778,-122.217393
21,21,Weekday,Eastbound,48,FRUITVALE AV & MACARTHUR BLV,0,98.01908447,37.79972269,-122.2164546
21,21,Weekday,Westbound,1,FRUITVALE AV & MACARTHUR BLV,95.16780749,2.106459475,37.79960262,-122.2165376
21,21,Weekday,Westbound,2,FRUITVALE AV & MONTANA ST,15.71865158,8.113277199,37.79854117,-122.2169741
21,21,Weekday,Westbound,3,FRUITVALE AV & CASTELLO ST,12.69858727,3.019641286,37.79688061,-122.2175382
21,21,Weekday,Westbound,4,FRUITVALE AV & SCHOOL ST,17.69491827,3.295783408,37.7954739,-122.218179
21,21,Weekday,Westbound,5,FRUITVALE AV & BROOKDALE AV,23.57638982,5.512503319,37.79289574,-122.2192022
21,21,Weekday,Westbound,6,FRUITVALE AV & LYNDE ST,14.98643252,7.712690799,37.79131247,-122.2198296
21,21,Weekday,Westbound,7,FRUITVALE AV & BLOSSOM ST,26.28222084,5.598721897,37.78951332,-122.2205493
21,21,Weekday,Westbound,8,FRUITVALE AV & LOGAN ST,14.0778128,4.662557616,37.78784298,-122.2212138
21,21,Weekday,Westbound,9,FRUITVALE AV & E 23RD ST,15.34355353,7.564684558,37.78574108,-122.2220456
21,21,Weekday,Westbound,10,FRUITVALE AV & FOOTHILL BLVD,39.11698171,32.89752658,37.78354775,-122.2229501
21,21,Weekday,Westbound,11,FRUITVALE AV & E 18TH ST,3.246187164,3.31698201,37.78167207,-122.2238892
21,21,Weekday,Westbound,12,FRUITVALE AV & E 16TH ST,4.602919025,9.705650659,37.78043901,-122.2245235
21,21,Weekday,Westbound,13,FRUITVALE AV & INTERNATIONAL,7.690493539,49.16640334,37.77736704,-122.2261159
21,21,Weekday,Westbound,14,NO STOP FRUITVALE AV & SAN L,1.212947038,0.76999727,37.7757174,-122.2263348
21,21,Weekday,Westbound,15,FRUITVALE BART,123.0923484,97.81730112,37.7750454,-122.2247022
21,21,Weekday,Westbound,16,E 12TH ST & FRUITVALE AV,6.356807489,1.688615268,37.77630827,-122.2268845
21,21,Weekday,Westbound,17,29TH AV & RAILROAD CROSSING,10.51304993,7.25372116,37.77735826,-122.2308397
21,21,Weekday,Westbound,18,23RD AV & 29TH AV,2.869814698,3.67853309,37.77289554,-122.2358244
21,21,Weekday,Westbound,19,PARK ST & CLEMENT AV,6.775380456,9.922857172,37.76962275,-122.2383993
21,21,Weekday,Westbound,20,PARK ST & BUENA VISTA AV,10.92681181,8.292676942,37.76795886,-122.2398135
21,21,Weekday,Westbound,21,PARK ST & SANTA CLARA AV,84.73261001,25.28110435,37.7651476,-122.2421159
21,21,Weekday,Westbound,22,PARK ST & ENCINAL AV,26.32118897,15.66696227,37.76226737,-122.2445613
21,21,Weekday,Westbound,23,PARK ST & SAN JOSE AV,5.12224408,7.385630194,37.76078312,-122.2458304
21,21,Weekday,Westbound,24,OTIS DR & PARK ST,25.20724234,87.40089517,37.75719939,-122.2480072
21,21,Weekday,Westbound,25,OTIS DR & BROADWAY,0.619774068,2.310550248,37.75534538,-122.2445049
21,21,Weekday,Westbound,26,OTIS DR & MOUND ST,0.870926195,2.586645584,37.75334331,-122.2411594
21,21,Weekday,Westbound,27,OTIS DR & HIGH ST,1.196559713,5.721000593,37.75193367,-122.2391872
21,21,Weekday,Westbound,28,ISLAND DR & PARK & RIDE,0.420262958,4.806495827,37.7450076,-122.2370843
21,21,Weekday,Westbound,29,ROBERT DAVEY JR DR & PACKET,0.045548654,1.253421539,37.74427041,-122.2395847
21,21,Weekday,Westbound,30,ROBERT DAVEY JR DR & PUDDING,0.811165039,10.25136373,37.74396669,-122.2435328
21,21,Weekday,Westbound,31,ROBERT DAVEY JR DR & OYSTER,0.022727273,2.719975039,37.74266682,-122.2452696
21,21,Weekday,Westbound,32,ROBERT DAVEY JR DR & CHANNIN,0.316114706,7.418070959,37.74317521,-122.2482475
21,21,Weekday,Westbound,33,AUGHINBAUGH WAY & ROBERT DAV,2.949728655,13.69630036,37.74248909,-122.2501048
21,21,Weekday,Westbound,34,AUGHINBAUGH WAY & THE LAGOON,0.73150527,1.627723696,37.74094046,-122.2510322
21,21,Weekday,Westbound,35,AUGHINBAUGH WAY & MECARTNEY,1.953630831,20.31497579,37.73872648,-122.2520627
21,21,Weekday,Westbound,36,MECARTNEY RD & SHARON RD,0,0.028571429,37.73803148,-122.2546789
21,21,Weekday,Westbound,37,HARBOR BAY PKWY & FERRY TERM,1.400637905,3.041354709,37.73659738,-122.2564282
21,21,Weekday,Westbound,38,MECARTNEY RD & SHARON RD,0.02173913,0,37.73752718,-122.2542018
21,21,Weekday,Westbound,39,MECARTNEY RD & AUGHINBAUGH W,0.044466403,0.02173913,37.73781951,-122.2505369
21,21,Weekday,Westbound,40,MECARTNEY RD & MARCUSE ST,0.216474773,4.487404114,37.73717223,-122.2489091
21,21,Weekday,Westbound,41,MECARTNEY RD & VERDEMAR DR,2.041846885,17.40325636,37.7366142,-122.244519
21,21,Weekday,Westbound,42,MECARTNEY RD & BELMONT PLACE,0.613283673,15.08918944,37.73601569,-122.2419781
21,21,Weekday,Westbound,43,MECARTNEY RD & ISLAND DR,1.757168882,8.797851658,37.73549984,-122.2395177
21,21,Weekday,Westbound,44,MECARTNEY RD & HOLLY ST,0.63732936,7.055012997,37.73498269,-122.2369193
21,21,Weekday,Westbound,45,MECARTNEY RD & MELROSE AV,0.677221531,11.6994063,37.73382121,-122.2344578
21,21,Weekday,Westbound,46,MAITLAND DR & FITCHBURG AV,0.442410564,5.291599875,37.73080383,-122.231735
21,21,Weekday,Westbound,47,MAITLAND DR & HARBOR BAY PKW,2.176446552,16.32356948,37.72916085,-122.2295523
21,21,Weekday,Westbound,48,NO STOP JOHN GLENN DR & RON,0.023809524,0.121428571,37.71778233,-122.2068236
21,21,Weekday,Westbound,49,OAKLAND INTERNATIONAL AIRPOR,0,53.00698269,37.71273913,-122.2122965
28,28,Weekday,Northbound,1,HAYWARD BART,52.75805963,0,37.66996033,-122.086565
28,28,Weekday,Northbound,2,C ST & MISSION BLVD,19.71135395,3.903501965,37.67097301,-122.0830038
28,28,Weekday,Northbound,3,C ST & MAIN ST,0.508026973,0.136363636,37.67216922,-122.0810351
28,28,Weekday,Northbound,4,C ST & FOOTHILL BLVD,0.960494505,0.216491841,37.6732891,-122.079545
28,28,Weekday,Northbound,5,2ND ST & B ST,2.460469715,0.374498834,37.6748439,-122.0788787
28,28,Weekday,Northbound,6,B ST & 3RD ST,1.151078736,1.154092204,37.6765209,-122.0774085
28,28,Weekday,Northbound,7,B ST & 4TH ST,0.28537037,0.581649832,37.67790469,-122.0754515
28,28,Weekday,Northbound,8,B ST & 5TH ST,0.037037037,0.42006734,37.6784587,-122.0741603
28,28,Weekday,Northbound,9,B ST & 6TH ST,1.511258556,1.555657306,37.67926371,-122.0722994
28,28,Weekday,Northbound,10,B ST & 7TH ST,1.187623858,3.420973101,37.68019326,-122.0701196
28,28,Weekday,Northbound,11,B ST & LINDEN ST,1.382012802,2.902863248,37.68158124,-122.0675907
28,28,Weekday,Northbound,12,B ST & VERMONT ST,3.517853073,9.814590965,37.68300728,-122.0650951
28,28,Weekday,Northbound,13,CENTER ST & FERNWOOD CT,3.237330077,1.852096237,37.6850144,-122.0634889
28,28,Weekday,Northbound,14,CENTER ST & #22218,3.927820143,4.284096459,37.68788197,-122.0626179
28,28,Weekday,Northbound,15,CENTER ST & P AND R LOT,0.70962371,2.001017131,37.69121581,-122.0623804
28,28,Weekday,Northbound,16,CENTER ST & RAVENWOOD PL,0.469778555,0.334370629,37.69450875,-122.0621812
28,28,Weekday,Northbound,17,CENTER ST & DAVID ST,0.581666667,0.620953121,37.69568599,-122.0619713
28,28,Weekday,Northbound,18,CENTER ST & CIRCLE AV,1.977272727,0.541111441,37.69936687,-122.0613475
28,28,Weekday,Northbound,19,HEYER AV & CENTER ST,1.200239575,1.165131165,37.70401763,-122.0617606
28,28,Weekday,Northbound,20,HEYER AV & MADISON AV,0.914224664,0.132275132,37.70434744,-122.0649258
28,28,Weekday,Northbound,21,MADISON AV & JAMES AV,0.171037296,0.475622896,37.70579057,-122.0644414
28,28,Weekday,Northbound,22,MADISON AV & VANNOY AV,0.479377104,0,37.70735768,-122.0641818
28,28,Weekday,Northbound,23,SEVEN HILLS RD & MADISON AV,0.912837742,1.424800345,37.70867541,-122.0644357
28,28,Weekday,Northbound,24,SEVEN HILLS RD & SANDY RD,1.127747253,0.458333333,37.70876164,-122.0662368
28,28,Weekday,Northbound,25,SEVEN HILLS RD & BRICKELL WA,2.487535613,0.814458689,37.70886546,-122.0685463
28,28,Weekday,Northbound,26,REDWOOD RD & SEVEN HILLS RD,1.290854476,2.376619934,37.70918256,-122.0741015
28,28,Weekday,Northbound,27,REDWOOD RD & MABEL AV,2.284900285,0.637222222,37.70341714,-122.0741518
28,28,Weekday,Northbound,28,REDWOOD RD & LORENA AV,0.791666667,0.695868946,37.69965211,-122.0740942
28,28,Weekday,Northbound,29,REDWOOD RD & JAMISON WAY,0.313034188,1.270997151,37.69824115,-122.0740661
28,28,Weekday,Northbound,30,REDWOOD RD & CASTRO VALLEY B,2.071937322,3.727207977,37.69464622,-122.0740818
28,28,Weekday,Northbound,31,CASTRO VALLEY BART,8.114269788,11.44346897,37.69176219,-122.0749103
28,28,Weekday,Northbound,32,CASTRO VALLEY BLVD & REDWOOD,6.431462056,2.20014245,37.69566313,-122.0748695
28,28,Weekday,Northbound,33,CASTRO VALLEY BLVD & SANTA M,5.06497669,2.838675214,37.69565079,-122.078118
28,28,Weekday,Northbound,34,CASTRO VALLEY BLVD & SAN MIG,3.412846413,2.026288526,37.69558181,-122.0816874
28,28,Weekday,Northbound,35,CASTRO VALLEY BLVD & ANITA A,1.088383838,0.532407407,37.69542272,-122.0827948
28,28,Weekday,Northbound,36,CASTRO VALLEY BLVD & WISTERI,0.950854701,1.001068376,37.69495578,-122.0846954
28,28,Weekday,Northbound,37,CASTRO VALLEY BLVD & LAKE CH,4.351851852,3.015507641,37.69450961,-122.0862391
28,28,Weekday,Northbound,38,LAKE CHABOT RD & CASTRO VALL,0.917249417,1.206034706,37.69469373,-122.0866648
28,28,Weekday,Northbound,39,LAKE CHABOT & EDEN MEDICAL C,3.742650868,4.838221963,37.69749825,-122.0869655
28,28,Weekday,Northbound,40,SOMERSET AV & BERNAL ST,1.65452603,1.250938876,37.70109059,-122.088969
28,28,Weekday,Northbound,41,SOMERSET AV & STANTON AV,0.857549858,0.917378917,37.70057587,-122.0917963
28,28,Weekday,Northbound,42,STANTON AV & CARLTON AV,0.934472934,0.529202279,37.70128654,-122.0932269
28,28,Weekday,Northbound,43,STANTON AV & ACORN ST,0.476495726,0.282407407,37.70210632,-122.0951669
28,28,Weekday,Northbound,44,STANTON AV & STANTON HEIGHTS,1.178095053,1.401223776,37.70322505,-122.097289
28,28,Weekday,Northbound,45,MIRAMAR AV & DALMATIA PL,3.307821808,3.18026418,37.70271477,-122.1018342
28,28,Weekday,Northbound,46,MIRAMAR AV & SARATOGA ST,5.604279979,2.716265216,37.70155316,-122.1065298
28,28,Weekday,Northbound,47,164TH AV & FOOTHILL BLVD,3.13008288,3.915922041,37.69954406,-122.1085273
28,28,Weekday,Northbound,48,164TH ST & GORDON WAY,0.51460114,0.627492877,37.69821848,-122.1095324
28,28,Weekday,Northbound,49,164TH ST & HELO DR,1.476139601,0.916958042,37.6968979,-122.1111388
28,28,Weekday,Northbound,50,164TH ST & E 14TH ST,4.968499093,2.990902616,37.69526286,-122.1134525
28,28,Weekday,Northbound,51,E 14TH ST & 163RD AV,3.226787102,1.005536131,37.69631656,-122.1156677
28,28,Weekday,Northbound,52,E 14TH ST & ASHLAND AV,2.173076923,1.34039109,37.69864937,-122.1189862
28,28,Weekday,Northbound,53,159TH AV & E 14TH ST,1.532407407,2.928613054,37.69935425,-122.121189
28,28,Weekday,Northbound,54,COELHO DR & MOONEY AV,0.645133047,1.511001881,37.69834861,-122.1248751
28,28,Weekday,Northbound,55,BAY FAIR BART,12.80676317,34.72167444,37.69656546,-122.1257138
28,28,Weekday,Northbound,56,HALCYON DR & HESPERIAN BLVD,2.159188034,3.310120435,37.70198053,-122.1305953
28,28,Weekday,Northbound,57,HALCYON DR & OLEANDER ST,0.280626781,0.884259259,37.70191763,-122.1361058
28,28,Weekday,Northbound,58,FLORESTA BLVD & FREMONT AV,6.219211344,7.761784512,37.7015551,-122.1431609
28,28,Weekday,Northbound,59,FLORESTA BLVD & MONTEREY BLV,0.886137011,3.090164465,37.69987714,-122.1473061
28,28,Weekday,Northbound,60,MONTEREY BLVD & ARGUELLO DR,0.811253561,1.592948718,37.70105149,-122.1491452
28,28,Weekday,Northbound,61,ALVARADO ST & TEAGARDEN ST,3.957847708,3.982193732,37.70602914,-122.1523299
28,28,Weekday,Northbound,62,ALVARADO ST & ALADDIN AV,1.011946387,1.818732194,37.7088919,-122.1542621
28,28,Weekday,Northbound,63,ALVARADO ST & MARINA BLVD,2.220441595,3.009615385,37.71453857,-122.1580262
28,28,Weekday,Northbound,64,ALVARADO ST & WILLIAMS ST,0.341880342,2.271917897,37.71736593,-122.1597902
